축제명,개최장소,축제시작일자,축제종료일자,축제내용,주관기관명,주최기관명,후원기관명,전화번호,홈페이지주소,관련정보,소재지도로명주소,소재지지번주소,위도,경도,데이터기준일자,제공기관코드,제공기관명,외국인방문수,사진
제5회 강릉 비치비어페스티벌,경포해변 중앙광장,2025-06-27,2025-06-29,전국 브루어리 맥주+로컬푸드+플로깅+비어도슨트+플리마켓+라이브공연+디제잉파티,강릉비치비어페스티벌추진위원회,강원특별자치도 강릉시청,,033-640-5130,,,강원특별자치도 강릉시 창해로 514,강원특별자치도 강릉시 안현동 산1-9,37.80579695,128.907474,2025-03-04,4201000,강원특별자치도 강릉시,53,https://www.visitbusan.net/uploadImgs/files/cntnts/20191222162111363_thumbL
2025 경포 벚꽃 잔치,경포대 및 경포호 일원,2025-03-28,2025-04-02,"바다와 호수, 흩날리는 벚꽃 감상+시화전시+민속놀이 체험+공예체험+다도,약선차 시음 및 허브향기 치료법 체험+벚꽃운동회+벚꽃버스킹",강원특별자치도 강릉시청,강원특별자치도 강릉시청,,033-640-5130,,,강원특별자치도 강릉시 창해로 514,강원특별자치도 강릉시 안현동 산1-9,37.80579695,128.907474,2025-03-04,4201000,강원특별자치도 강릉시,110,https://www.visitbusan.net/uploadImgs/files/cntnts/20191222162111363_thumbL
2025 경포 썸머 페스티벌,경포해변 일원,2025-07-29,2025-08-04,무더운 여름에 시원한 경포 해변에서 열리는 야외 축제,강원특별자치도 강릉시청,강원특별자치도 강릉시청,,033-640-5130,,,강원특별자치도 강릉시 경포로 365,강원특별자치도 강릉시 저동 94,37.79556876,128.8965386,2025-03-04,4201000,강원특별자치도 강릉시,86,https://www.visitbusan.net/uploadImgs/files/cntnts/20191222162111363_thumbL
마곡사 신록축제,사곡면 운암리 마곡사일원,2022-05-07,2022-05-08,전시 운영+백범명상길 걷기+마곡사 보물찾기 등,마곡사신록축제추진위원회,공주시,,041-840-2056,,,충청남도 공주시 사곡면 마곡사로 966 마곡사,충청남도 공주시 사곡면 운암리 567,36.55740589,127.011603,2022-11-21,4500000,충청남도 공주시,101,https://www.visitbusan.net/uploadImgs/files/cntnts/20191222162111363_thumbL
제68회 백제문화제,금강신관공원,2022-10-01,2022-10-10,웅진성퍼레이드+체험마당+무대공연+농특산품전시 및 판매,백제문화선양위원회,백제문화제추진위원회,,041-840-8112,https://www.baekje.org/kor/,,충청남도 공주시 신관동 553,충청남도 공주시 신관동 553,36.47835102,127.1204236,2022-11-21,4500000,충청남도 공주시,162,https://www.visitbusan.net/uploadImgs/files/cntnts/20191222162111363_thumbL
제5회 겨울공주 군밤축제,온라인,2022-01-29,2022-02-20,알밤 토크콘서트+공주알밤 디저트 UCC공모전+휴게소 홍보 등,겨울공주 군밤축제추진위원회,공주시,,041-840-2056,,,충청남도 공주시 금학동 111-1,충청남도 공주시 금학동 111-1,36.43336915,127.124038,2022-11-21,4500000,충청남도 공주시,79,https://www.visitbusan.net/uploadImgs/files/cntnts/20191222162111363_thumbL
제1회 유구색동수국정원 꽃축제,유구색동수국정원,2022-06-17,2022-06-19,공식+기획 행사+경관조성+체험프로그램+편의시설 운영 등,공주시,공주시,,041-840-8111,,,,충청남도 공주시 유구읍 유구리 648-17,36.5555032985,126.9543952096,2022-11-21,4500000,충청남도 공주시,88,https://www.visitbusan.net/uploadImgs/files/cntnts/20191222162111363_thumbL
그루브인관악 페스티벌,별빛내린천,2022-07-16,2022-07-17,"모든 장르의 스트릿 댄스 배틀과 함께 플리마켓, 전시 등 다양한 스트릿 문화를 별빛내린천에서 만날 수 있는 문화축제",관악문화재단+서울자치구문화재단연합회,서울특별시 관악구청,서울문화재단,02-828-5763,https://gfac.or.kr/,,서울특별시 관악구 신원로 35,서울특별시 관악구 신림동 1638-1,37.48231224,126.9290234,2025-03-10,3200000,서울특별시 관악구,772,https://www.visitbusan.net/uploadImgs/files/cntnts/20191222162111363_thumbL
2022 관악강감찬축제,낙성대공원,2022-10-14,2022-10-16,강감찬 장군 출병식 및 전승행렬 거리 퍼레이드+고려마을 테마 체험부스+강감찬 장군 추모제향 등 다채로운 행사 진행,관악문화재단,서울특별시 관악구청,문화체육관광부+서울특별시청,02-828-5762,https://ggcfest.com/,,서울특별시 관악구 낙성대로 77,서울특별시 관악구 봉천동 228,37.47197208,126.959371,2025-03-10,3200000,서울특별시 관악구,984,https://www.visitbusan.net/uploadImgs/files/cntnts/20191222162111363_thumbL
2022 어린이동화페스티벌,관악문화재단 어린이라운지,2022-11-12,2022-11-12,"소방관마술쇼, 동화구연  및 인형극등 다양한 어린이 전문 프로그램 운영",관악문화재단,관악문화재단,서울특별시 관악구청,02-828-5829,https://lib.gwanak.go.kr/,,서울특별시 관악구 신림로 3길 35,서울특별시 관악구 신림동 209-1,37.46759765,126.9448855,2025-03-10,3200000,서울특별시 관악구,1268,https://www.visitbusan.net/uploadImgs/files/cntnts/20191222162111363_thumbL
2023계룡軍문화축제,충남 계룡시일원(계룡대 활주로 및 시가지),2023-10-06,2023-10-10,"개막식,전시관, 체험, 공연·경연, 부대행사등",(재)계룡시문화관광재단,충청남도 계룡시,국방부 등,042-840-2623,http://m-festival.org/,군(軍)문화로 통(通)하는 YES 계룡,,충남 계룡시 신도안면 석계리 76,,,2023-08-28,5580000,충청남도 계룡시,163,https://www.visitbusan.net/uploadImgs/files/cntnts/20191222162111363_thumbL
2023하동세계차엑스포,경상남도 하동군 적량면 하동스포츠파크+하동군 화개면 하동야생차문화축제장,2023-05-04,2023-06-03,전시+교역+이벤트+체험+교육+여가+관광(다원+다실 등),(재)하동세계차엑스포조직위원회,경상남도청+경상남도 하동군청,문화체육관광부+중소벤처기업부+농촌진흥청+한국관광공사+대한무역투자진흥공사+중소벤처기업진흥공단,055-880-7023,https://www.hadongt.co.kr/,,경상남도 하동군 적량면 공설운동장로 207 일원+경상남도 하동군 화개면 쌍계로 571-25,,,,2024-11-14,5440000,경상남도 하동군,63,https://www.visitbusan.net/uploadImgs/files/cntnts/20191222162111363_thumbL
2023년 스물세번째 토지문학제,경상남도 하동군 악양면 최참판댁,2023-05-05,2023-05-07,문학제+교육+체험+경연+대회+토론,토지문학제운영위원회,토지문학제운영위원회,경상남도 하동군청,055-882-2675,https://www.hadong.go.kr/02641/02652/02816.web,,경상남도 하동군 악양면 평사리길 66-7,,,,2024-11-14,5440000,경상남도 하동군,97,https://www.visitbusan.net/uploadImgs/files/cntnts/20191222162111363_thumbL
제9회 하동북천꽃양귀비축제,경상남도 하동군 북천면 직전리 꽃단지 일원,2023-05-19,2023-05-22,꽃축제+전시+대회+공연,하동북천코스모스메밀꽃 영농조합법인,하동북천코스모스메밀꽃 영농조합법인,,055-884-2416,https://www.hadong.go.kr/02641/02652/02810.web,,경상남도 하동군 북천면 경서대로 2446-6,,,,2024-11-14,5440000,경상남도 하동군,160,https://www.visitbusan.net/uploadImgs/files/cntnts/20191222162111363_thumbL
제7회 하동섬진강문화재첩축제,경상남도 하동읍 송림공원 및 섬진강변 일원,2023-08-04,2023-08-06,먹거리축제+체험+공연+대회+판매,(사)하동섬진강문화재첩축제추진위원회,(사)하동섬진강문화재첩축제추진위원회,,055-880-2450,https://www.hadong.go.kr/02641/02652/02812.web,,경상남도 하동군 하동읍 섬진강대로 2107-8,,,,2024-11-14,5440000,경상남도 하동군,181,https://www.visitbusan.net/uploadImgs/files/cntnts/20191222162111363_thumbL
제10회 술상전어축제,경상남도 하동군 진교면 술상항 일원,2023-08-11,2023-08-13,먹거리축제+판매+공연+체험,진교면 술상어촌계,진교면 술상어촌계,경상남도+경상남도 하동군청+하동군 수협,055-884-3656,https://www.hadong.go.kr/02641/02652/02813.web,,경상남도 하동군 진교면 술상길 195,,,,2024-11-14,5440000,경상남도 하동군,202,https://www.visitbusan.net/uploadImgs/files/cntnts/20191222162111363_thumbL
제7회 하동북천코스모스메밀꽃축제,경상남도 하동군 북천면 직전리 꽃단지 일원,2023-09-27,2023-10-09,꽃축제+전시+공연+판매,하동북천코스모스메밀꽃 영농조합법인,하동북천코스모스메밀꽃 영농조합법인,,055-884-7416,https://www.hadong.go.kr/02641/02652/02814.web,,경상남도 하동군 북천면 경서대로 2446-6,,,,2024-11-14,5440000,경상남도 하동군,103,https://www.visitbusan.net/uploadImgs/files/cntnts/20191222162111363_thumbL
2023년 이병주하동국제문학제,경상남도 하동군 북천면 이병주문학관,2023-10-07,2023-10-07,문학제+경연,이병주하동국제문학제 조직위원회,(사)이병주기념사업회+국제신문,,055-882-2354,https://www.hadong.go.kr/02641/02652/02815.web,,경상남도 하동군 북천면 이명골길 14-28,,,,2024-11-14,5440000,경상남도 하동군,109,https://www.visitbusan.net/uploadImgs/files/cntnts/20191222162111363_thumbL
2023 별천지하동 적량김치축제,경상남도 하동군 적량면 문화복지센터,2023-12-09,2023-12-09,먹거리축제+판매+공연+체험,적량면 문화복지센터 운영위원회,적량면 문화복지센터 운영위원회,,055-880-6121,https://www.hadong.go.kr/02641/02652/03325.web,,경상남도 하동군 적량면 대티길 44-22,,,,2024-11-14,5440000,경상남도 하동군,148,https://www.visitbusan.net/uploadImgs/files/cntnts/20191222162111363_thumbL
하동청학 미나리 판매 행사,경상남도 하동군 횡천면 남산리 일원,2024-03-01,2024-03-31,먹거리축제+판매,하동청학미나리작목,하동청학미나리작목,,,https://www.hadong.go.kr/02641/02652/02805.web,,,경상남도 하동군 남산리 189,,,2024-11-14,5440000,경상남도 하동군,46,https://www.visitbusan.net/uploadImgs/files/cntnts/20191222162111363_thumbL
제26회 화개장터벚꽃축제,경상남도 하동군 화개면 그린나래광장,2024-03-22,2024-03-24,벚꽃축제+공연+경연+판매,화개면 청년회,화개장터벚꽃축제추진위원회,경상남도 하동군청,055-880-2493,https://www.hadong.go.kr/02641/02652/02807.web,,,경상남도 하동군 화개면 탑리 576,,,2024-11-14,5440000,경상남도 하동군,-30,https://www.visitbusan.net/uploadImgs/files/cntnts/20191222162111363_thumbL
제27회 하동야생차문화축제,경상남도 하동군 화개면 일대,2024-05-11,2024-05-15,전시+교역+이벤트+체험+교육+여가+관광(다원+다실 등),(사)하동야생차문화축제조직위원회,(사)하동야생차문화축제조직위원회,,055-880-2734,https://www.hadong.go.kr/02641/02652/02809.web,,경상남도 하동군 화개면 쌍계로 571-25,,,,2024-11-14,5440000,경상남도 하동군,45,https://www.visitbusan.net/uploadImgs/files/cntnts/20191222162111363_thumbL
제10회 북천 꽃 양귀비 축제,경상남도 하동군 북천면 직전리 꽃단지 일원,2024-05-10,2024-05-19,꽃축제+전시+대회+공연,하동북천코스모스메밀꽃 영농조합법인,하동북천코스모스메밀꽃 영농조합법인,,055-884-2416,https://www.hadong.go.kr/02641/02652/02810.web,,경상남도 하동군 북천면 경서대로 2446-6,,,,2024-11-14,5440000,경상남도 하동군,108,https://www.visitbusan.net/uploadImgs/files/cntnts/20191222162111363_thumbL
제8회 하동섬진강문화재첩축제,경상남도 하동읍 송림공원 및 섬진강변 일원,2024-06-14,2024-06-16,먹거리축제+체험+공연+대회+판매,(사)하동섬진강문화재첩축제추진위원회,(사)하동섬진강문화재첩축제추진위원회,,055-880-2450,https://www.hadong.go.kr/02641/02652/02812.web,,경상남도 하동군 하동읍 섬진강대로 2107-8,,,,2024-11-14,5440000,경상남도 하동군,124,https://www.visitbusan.net/uploadImgs/files/cntnts/20191222162111363_thumbL
제18회 북천 코스모스 메밀꽃축제,경상남도 하동군 북천면 직전리 꽃단지 일원,2024-09-13,2024-09-27,꽃축제+전시+공연+판매,하동북천코스모스메밀꽃 영농조합법인,하동북천코스모스메밀꽃 영농조합법인,,055-884-7416,https://www.hadong.go.kr/02641/02652/02814.web,,경상남도 하동군 북천면 경서대로 2446-6,,,,2024-11-14,5440000,경상남도 하동군,116,https://www.visitbusan.net/uploadImgs/files/cntnts/20191222162111363_thumbL
2024년 이병주국제문학제,경상남도 하동군 북천면 이병주문학관,2024-09-28,2024-09-28,문학제+경연,이병주하동국제문학제 조직위원회,(사)이병주기념사업회+국제신문,,055-882-2354,https://www.hadong.go.kr/02641/02652/02815.web,,경상남도 하동군 북천면 이명골길 14-28,,,,2024-11-14,5440000,경상남도 하동군,130,https://www.visitbusan.net/uploadImgs/files/cntnts/20191222162111363_thumbL
"하동을 먹다, 하동별맛 축제",경상남도 하동군 하동읍 하동송림공원,2024-10-04,2024-10-06,먹거리축제+판매+공연,한국생활개선 하동군연합회,한국생활개선 하동군연합회,,,https://www.hadong.go.kr/02641/02652/04970.web,,,경상남도 하동군 하동읍 광평리 440-5,,,2024-11-14,5440000,경상남도 하동군,150,https://www.visitbusan.net/uploadImgs/files/cntnts/20191222162111363_thumbL
2024년 스물세번째 토지문학제,경상남도 하동군 악양면 최참판댁,2024-10-05,2024-10-12,문학제+교육+체험+경연+대회+토론,토지문학제운영위원회,토지문학제운영위원회,경상남도 하동군청,055-882-2675,https://www.hadong.go.kr/02641/02652/02816.web,,경상남도 하동군 악양면 평사리길 66-7,,,,2024-11-14,5440000,경상남도 하동군,107,https://www.visitbusan.net/uploadImgs/files/cntnts/20191222162111363_thumbL
제16회 참숭어소비촉진대축제,경상남도 하동군 금남면 노량리 노량항 일원,2024-11-08,2024-11-09,먹거리축제+판매+전시+공연+대회,하동군어류양식업연합회,하동군수산업협동조합,경상남도청+경상남도 하동군청+수협중앙회+㈜수협사료+하동화력본부,055-884-3656,https://www.hadong.go.kr/02641/02652/02813.web,,,경상남도 하동군 금남면 노량리 742-12,,,2024-11-14,5440000,경상남도 하동군,131,https://www.visitbusan.net/uploadImgs/files/cntnts/20191222162111363_thumbL
도봉 과학축전,"도봉구청 로비, 아뜨리움, 대강당, 광장 등",2015-10-23,2015-10-28,과학 체험· 전시·교육·이벤트 마당 등,서울특별시 도봉구청,서울특별시 도봉구청,,02-2091-2316,http://science.dobong.go.kr,,서울특별시 도봉구 마들로 656,,37.6686287,127.0470496,2018-05-01,3090000,서울특별시 도봉구,1023,https://www.visitbusan.net/uploadImgs/files/cntnts/20191222162111363_thumbL
구문소용축제,구문소관광단지 일원,2024-05-25,2024-05-26,용신제+전통공연+체험프로그램,구문소축제위원회,구문소축제위원회,강원특별자치도 태백시청,033-581-6904,http://tbcf.or.kr/,,강원특별자치도 태백시 사군드리길9,강원특별자치도 태백시 동점동280-7,37.09303192,129.0380079,2024-10-30,4221000,강원특별자치도 태백시,67,https://www.visitbusan.net/uploadImgs/files/cntnts/20191222162111363_thumbL
황연 기차화통 축제,오로라파크 및 통리5일장 일원,2024-06-14,2024-06-16,문화공연+체험행사+먹거리행사 등,황연동축제위원회,황연동+황연동주민자치위원회,강원특별자치도 태백시청,033-552-1371,http://tbcf.or.kr/,,강원특별자치도 태백시 통리길72,강원특별자치도 태백시 통동산68-12,37.17293428,129.0382895,2024-10-30,4221000,강원특별자치도 태백시,138,https://www.visitbusan.net/uploadImgs/files/cntnts/20191222162111363_thumbL
한강 낙동강 발원지 축제,황지연못(문화광장)+중앙로+ 검룡소 등,2024-07-26,2024-08-04,물놀이난장+공연+체험행사+부스 운영 등,태백시문화재단,태백시문화재단,강원특별자치도 태백시청,033-553-6900,http://tbcf.or.kr/,,강원특별자치도 태백시 황지연못길12,강원특별자치도 태백시 황지동623,37.17271135,128.9910602,2024-10-30,4221000,강원특별자치도 태백시,100,https://www.visitbusan.net/uploadImgs/files/cntnts/20191222162111363_thumbL
삼수 매봉산 바람개비 축제,검룡소첫물지리생태원,2024-07-19,2024-07-21,공연+체험프로그램+부스운영 등,삼수동주민자치위원회,삼수동축제위원회,강원특별자치도 태백시청,033-552-1376,http://tbcf.or.kr/,,강원특별자치도 태백시 검룡소길 476,강원특별자치도 태백시 창죽동146-1,37.23233537,128.9438251,2024-10-30,4221000,강원특별자치도 태백시,41,https://www.visitbusan.net/uploadImgs/files/cntnts/20191222162111363_thumbL
장성 탄탄마을 축제,장성중앙시장 일원 및 로드엔드 옆 소방도로,2024-09-28,2024-09-29,공연+체험프로그램+부스운영 등,장성동축제위원회,징성동주민자치위원회,강원특별자치도 태백시청,033-581-6903,http://tbcf.or.kr/,,강원특별자치도 태백시 장성1길 190,강원특별자치도 태백시 장성동 159-2,37.10068429,129.009713,2024-10-30,4221000,강원특별자치도 태백시,149,https://www.visitbusan.net/uploadImgs/files/cntnts/20191222162111363_thumbL
태백 황지연못 황부자며느리 축제,횡지연못(문화광장) 일원,2024-09-06,2024-09-08,마당극+걷기행사+가요제+야시장,태백시여성단체협의회,황부자며느리축제위원회,강원특별자치도 태백시청,033-552-1370,http://tbcf.or.kr/,,강원특별자치도 태백시 황지연못길12,강원특별자치도 태백시 황지동623,37.17271135,128.9910602,2024-10-30,4221000,강원특별자치도 태백시,111,https://www.visitbusan.net/uploadImgs/files/cntnts/20191222162111363_thumbL
철암 단풍축제,철암단풍군락지 일원,2024-10-18,2024-10-20,단풍길걷기대회+전시회+먹거리장터 등,철암동주민자치회,철암단풍축제위원회,강원특별자치도 태백시청,033-582-7906,http://tbcf.or.kr/,,강원특별자치도 태백시 동태백로 584,강원특별자치도 태백시 철암동 341-3,37.12174771,129.042924,2024-10-30,4221000,강원특별자치도 태백시,41,https://www.visitbusan.net/uploadImgs/files/cntnts/20191222162111363_thumbL
태백산 눈축제,태백산국립공원+황지연못 일원,2024-01-31,2024-02-09,눈조각대회+눈꽃등반대회+체험행사+공연 등,태백시문화재단,태백시문화재단,강원특별자치도 태백시청,033-553-6900,http://tbcf.or.kr/,,강원특별자치도 태백시 천제단길 4,강원특별자치도 태백시 소도동 101-3,37.13144934,128.9603549,2024-10-30,4221000,강원특별자치도 태백시,-15,https://www.visitbusan.net/uploadImgs/files/cntnts/20191222162111363_thumbL
제30회 성산일출축제,서귀포시 성산일출봉 일원,2022-12-31,2023-01-01,코로나19 종식 기원 제주 큰굿+성산 10경+열린 음악회 등,제주특별자치도,성산일출축제위원회,,064-760-4281,https://www.sunrisefestival.kr/welcome,,제주특별자치도 서귀포시 성산읍 일출로 284-12,제주특별자치도 서귀포시 성산읍 성산리 85,33.46223376,126.9368007,2025-06-24,6520000,제주특별자치도 서귀포시,31,https://www.visitbusan.net/uploadImgs/files/cntnts/20191222162111363_thumbL
제22회 최남단 방어축제,모슬포항 일원,2022-11-26,2022-12-25,청정 바다의 흥과멋과 맛의 향연,최남단방어축제위원회,최남단방어축제위원회,해양수산부+제주특별자치도+제주특별자치도 서귀포시+수협중앙회+모슬포수협,064-794-8032,http://bangeofestival.com/introduction,,제주특별자치도 서귀포시 대정읍 최남단해안로 66,제주특별자치도 서귀포시 대정읍 하모리 770-28,33.21449893,126.2520491,2025-06-24,6520000,제주특별자치도 서귀포시,92,https://www.visitbusan.net/uploadImgs/files/cntnts/20191222162111363_thumbL
제29회 덕수리 전통민속 재현행사,덕수리민속공연장 (제주조각공원운동장),2022-10-07,2022-10-08,전통민속 재현,덕수리민속보존회,덕수리마을회,,064-760-4313,https://seogwipo.go.kr/festivals/deoksuri/info/intro.htm,,제주특별자치도 서귀포시 안덕면 일주서로 1836,제주특별자치도 서귀포시 안덕면 덕수리 산 27,33.2541298,126.3222874,2025-06-24,6520000,제주특별자치도 서귀포시,67,https://www.visitbusan.net/uploadImgs/files/cntnts/20191222162111363_thumbL
2022 중문 칠선녀축제,중문관광단지 및 천제연폭포 일원,2022-11-05,2022-11-06,지역특화 콘텐츠 홍보+사진전,중문동연합청년회,중문칠선녀축제위원회,,064-760-4824,https://seogwipo.go.kr/festivals/sevenbeauty/info/intro.htm,,제주특별자치도 서귀포시 천제연로 132 중문관광단지,제주특별자치도 서귀포시 중문동 2232,33.252662,126.418354,2025-06-24,6520000,제주특별자치도 서귀포시,121,https://www.visitbusan.net/uploadImgs/files/cntnts/20191222162111363_thumbL
제28회 제주 성읍마을 전통민속재현축제,제주성읍마을 남문광장,2022-10-09,2022-10-09,초가집줄놓기+전통혼례식 등,(사)성읍민속마을보존회+성읍1리 마을회,(사)성읍민속마을보존회+성읍1리 마을회,,064-760-4417,https://seogwipo.go.kr/festivals/seongeup/info/intro.htm,,제주특별자치도 서귀포시 표선면 성읍정의현로 30,제주특별자치도 서귀포시 표선면 성읍리 855-1,33.384904,126.8014971,2025-06-24,6520000,제주특별자치도 서귀포시,129,https://www.visitbusan.net/uploadImgs/files/cntnts/20191222162111363_thumbL
제11회 혼인지축제,황루알~혼인지,2022-10-15,2022-10-16,길트기+삼공주 추원제+민속경기+향토음식경연 등,성산읍 온평리 마을회,성산읍 온평리 마을회,,064-760-4282,https://seogwipo.go.kr/festivals/marriage/info/intro.htm,,제주특별자치도 서귀포시 성산읍 온평애향로23번길 6,제주특별자치도 서귀포시 성산읍 온평리 산 840-1,33.40812252,126.9001736,2025-06-24,6520000,제주특별자치도 서귀포시,139,https://www.visitbusan.net/uploadImgs/files/cntnts/20191222162111363_thumbL
합천황토한우축제,합천군민체육공원,2025-10-10,2025-10-12,합천의 자랑인 황토한우의 맛과 품격을 알리는 축제,합천축협,경상남도 합천군청 축산과,경상남도 합천군청+합천군의회,055-930-3573,https://www.hc.go.kr/06573/06623/09042.web,,경상남도 합천군 합천읍 문화로 62,경상남도 합천군 합천읍 합천리 896-15,35.5601699,128.1598684,2025-08-08,5480000,경상남도 합천군,113,https://www.visitbusan.net/uploadImgs/files/cntnts/20191222162111363_thumbL
황매산 억새축제,황매산군립공원,2025-10-11,2025-10-17,황매산 억새를 즐기는 축제,황매산축제위원회,경상남도 합천군청 산림과,,055-930-4752,https://www.hc.go.kr/09418/09428/09429.web,,경상남도 합천군 가회면 황매산공원길 4,,35.48184913,128.0037495,2025-08-08,5480000,경상남도 합천군,76,https://www.visitbusan.net/uploadImgs/files/cntnts/20191222162111363_thumbL
대장경기록문화축제,대장경테마파크,2025-10-22,2025-10-26,전시 및 공연 등 기록문화를 느낄 수 있는 축제,경상남도 합천군청,경상남도 합천군청 관광진흥과,,055-930-4697,https://www.hc.go.kr/06573/08250.web,,경상남도 합천군 가야면 가야산로 1160,,35.76749785,128.1365362,2025-08-08,5480000,경상남도 합천군,77,https://www.visitbusan.net/uploadImgs/files/cntnts/20191222162111363_thumbL
수려한합천영화제,합천영상테마파크 + 합천군일원,2025-10-01,2025-10-05,합천영상테마파크를 중심으로 영화인과 관객이 어우러지는 영화문화축제,합천군관광협의회,경상남도 합천군청 관광진흥과,경상남도,055-930-3753,,,경상남도 합천군 용주면 합천호수로 757,,35.54840705,128.0728404,2025-08-08,5480000,경상남도 합천군,139,https://www.visitbusan.net/uploadImgs/files/cntnts/20191222162111363_thumbL
고스트파크,합천영상테마파크,2025-08-01,2025-08-17,합천영상테마파크에서 열리는 여름 호러테마축제,경상남도 합천군청,경상남도 합천군청,,055-930-4663,https://hcgfest.com/,,경상남도 합천군 용주면 합천호수로 757,경상남도 합천군 용주면 가호리 256-5,35.54840705,128.0728404,2025-08-08,5480000,경상남도 합천군,28,https://www.visitbusan.net/uploadImgs/files/cntnts/20191222162111363_thumbL
2025 통영한산대첩축제,통영한산대첩광장 및 통영시 일원,2025-08-08,2025-08-14,고유제+군점+이순신장군 행렬+한산대첩 재현+학술발표회+통제영무과 체험마당,(재)통영한산대첩문화재단,(재)통영한산대첩문화재단,문화체육관광부+경상남도+경상남도 통영시,055-650-0522,https://tyhansancf.or.kr/,,경상남도 통영시 세병로 27(문화동),경상남도 통영시 문화동 62,34.84715495,128.423489,2025-08-07,5330000,경상남도 통영시,201,https://www.visitbusan.net/uploadImgs/files/cntnts/20191222162111363_thumbL
2025년 을사년 탐라국입춘굿,제주시·서귀포시일원·관덕정·제주목관아,2025-02-02,2025-02-04,제주는 1만8000 신들의 나라다. 이들이 하늘의 신에게 부름을 받아 하늘에 다녀오는 기간을 가리켜 ‘신구간이라고 한다. 옛 제주 사람들은 이 때에만 집을 옮기고 집을 수리할 수 있다고 생각했다. 함부로 이사를 하다간 신들을 노하게 할 수 있다고 생각한 것이다. 신구간이 끝나고 신들이 제주 섬으로 내려올 때가 되면 무당은 굿으로 신들을 불러들이는 제를 지낸다. 이것이 ‘입춘굿이다.,제주특별자치도 제주시,제주특별자치도 제주시+제주민예총,,064-758-0332,,,제주특별자치도 제주시 관덕로 19,,33.513394,126.5214658,2025-09-15,6500000,제주특별자치도,115,https://www.visitbusan.net/uploadImgs/files/cntnts/20191222162111363_thumbL
제18회 전농로 왕벚꽃 축제,삼도1동주민센터 주변,2025-03-28,2025-03-30,대표적인 벚꽃 명소인 전농로는 제주에서 가장 오래된 왕벚나무 가로수길이다. 제주왕벚꽃축제가 열리는 동안 차 없는 거리를 운영해 벚꽃이 눈처럼 날리는 벚꽃거리를 마음껏 즐길 수 있게 했다. 밤에는 등불과 어울려 또 다른 즐거움을 선사한다.,삼도1동축제추진위원회,삼도1동축제추진위원회,,064-728-4524,,,제주특별자치도 제주시 전농로 40,,33.5133545,126.5214079,2025-09-15,6500000,제주특별자치도,174,https://www.visitbusan.net/uploadImgs/files/cntnts/20191222162111363_thumbL
2025 제주들불축제,새별오름 일원,2025-03-14,2025-03-16,제주의 전통문화와 미디어아트와의 만남 시민이 직접 기획하고 참여하는 축제 자연친화적인 환경 축제로 새롭게 탄생한‘2025 제주들불축제에 여러분을 초대합니다,제주특별자치도 제주시,제주특별자치도 제주시,,064-728-2752,https://firefestivaljeju.com/,,제주특별자치도 제주시 애월읍 화전길 201,,33.3515689,126.3894999,2025-09-15,6500000,제주특별자치도,105,https://www.visitbusan.net/uploadImgs/files/cntnts/20191222162111363_thumbL
2025 신풍벚꽃터널 축제,신풍리 레포츠 공원,2025-03-29,2025-03-30,신풍벚꽃터널은 주민 참여 예산으로 진행된 축제로 작년 2024년 3월 30일-31일을 1회로 시작하게 되었습니다. 올해는 신풍리레포츠공원 일원에서 3㎞가 넘게 벚꽃이 흐드러지게 펼쳐지는 신풍리 벚꽃길을 배경으로 다양한 프로그램을 진행합니다.,신풍벚꽃터널축제위원회,신풍벚꽃터널축제위원회,,064-782-0311,https://sinpungli.com/,,제주특별자치도 서귀포시 성산읍 남산봉로 247,,33.3792492,126.8152069,2025-09-15,6500000,제주특별자치도,138,https://www.visitbusan.net/uploadImgs/files/cntnts/20191222162111363_thumbL
제14회 서귀포봄맞이축제,서귀진지+서복공원 등,2025-03-21,2025-03-21,가장 일찍 봄이 시작되는 서귀포에서 지역의 전통문화에 기반한 봄맞이 축제,서귀포문화사업회,자연제주+왈종미술관+탐라문화유산보존회 등,,064-733-2345,,,제주특별자치도 서귀포시 이중섭로 29,,33.2455527,126.5643216,2025-09-15,6500000,제주특별자치도,183,https://www.visitbusan.net/uploadImgs/files/cntnts/20191222162111363_thumbL
제 27회 서귀포 유채꽃 국제걷기대회,제주월드컵경기장,2025-03-22,2025-03-23,유채꽃을 배경으로 관광객과 도민이 함께 참여하는 제 27회 서귀포 유채꽃 국제걷기대회,제주특별자치도 서귀포시,제주특별자치도 서귀포시,,064-739-7201,http://www.jejusta.or.kr/index.php,,제주특별자치도 서귀포시 월드컵로 33,,33.2462599,126.5091903,2025-09-15,6500000,제주특별자치도,34,https://www.visitbusan.net/uploadImgs/files/cntnts/20191222162111363_thumbL
제14회 우도소라축제,우도면 천진항 광장,2025-04-25,2025-04-27,4월 꼭 가봐야 하는 우도 최대 축제 우도소라축제가 ‘제주 지역 1등 최우수 축제로 선정되어 돌아왔습니다.,우도면연합청년회,우도면사무소,,064-728-4329,,,제주특별자치도 제주시 우도면 우도해안길 70,,33.4928568,126.9515778,2025-09-15,6500000,제주특별자치도,159,https://www.visitbusan.net/uploadImgs/files/cntnts/20191222162111363_thumbL
제29회 한라산 청정고사리 축제,서중천 주변 (남원읍 한남리 1622-5 일원),2025-04-26,2025-04-27,자연이 살아숨쉬는 남원읍에서 혼디 고사리 꺾으멍 지꺼지게,남원읍축제위원회,남원읍사무소,,064-760-4183,http://www.jejugosari.net/,,,제주특별자치도 서귀포시 남원읍 한남리 1622-5,33.33150118,126.678001,2025-09-15,6500000,제주특별자치도,134,https://www.visitbusan.net/uploadImgs/files/cntnts/20191222162111363_thumbL
제14회 가파도 청보리축제,서귀포시 대정읍 가파리 일원,2025-04-04,2025-04-07,청보리가 넘실되는 배경으로 관광객과 도민이 함께하는 청보리축제가 서귀포시 대정읍 가파도 일원에서 개최될 예정입니다.,가파리마을회,가파리청보리축제위원회,대정읍사무소,067-794-7130,,,제주특별자치도 서귀포시 대정읍 가파로 2,,33.16622854,126.2689316,2025-09-15,6500000,제주특별자치도,93,https://www.visitbusan.net/uploadImgs/files/cntnts/20191222162111363_thumbL
2025년 제 1회 차 없는 거리 걷기축제,탑동광장,2025-04-26,2025-04-26,길 위에서 만나는 제주. 거리에서 시작되는 새로운 변화,제주특별자치도,제주특별자치도,,064-710-2932,,,제주특별자치도 제주시 중앙로 1,,33.51814845,126.5251248,2025-09-15,6500000,제주특별자치도,167,https://www.visitbusan.net/uploadImgs/files/cntnts/20191222162111363_thumbL
제19회 설문대할망 페스티벌,제주돌문화공원,2025-05-15,2025-05-15,설문대할망 제의식을 시작으로 다양한 음악과 춤. 공연이 함께하는 제주 고유 문화예술축제인 설문대할망 페스티벌,돌문화공원관리소,돌문화공원관리소,,064-710-7744,https://www.jeju.go.kr/jejustonepark/index.htm,,제주특별자치도 제주시 조천읍 남조로 2023,,33.45133062,126.6566618,2025-09-15,6500000,제주특별자치도,-41,https://www.visitbusan.net/uploadImgs/files/cntnts/20191222162111363_thumbL
2025 성안올레 걷기 축제,사라봉 일원,2025-05-10,2025-05-10,제주의 과거와 현재를 만날 수 있는 특별한 길 성안올레 와 원도심의 숨은 보석 사라봉 을 체험할 수 있는 2025 성안올레 걷기 축제에 여러분을 초대합니다.,제주특별자치도 제주시,제주특별자치도 제주시,,064-728-2752,https://www.jejusi.go.kr/seonganolle/main.do,,제주특별자치도 제주시 사라봉동길 74,,33.51866341,126.5476898,2025-09-15,6500000,제주특별자치도,150,https://www.visitbusan.net/uploadImgs/files/cntnts/20191222162111363_thumbL
2025 삼다콘서트,연동 삼다공원 일대,2025-06-13,2025-07-12,제주시 연동 도심 속 삼다공원에서 펼쳐지는 야간 문화관광 축제,제주관광공사+제주MBC,제주특별자치도,,064-740-2723,,,,제주특별자치도 제주시 연동 302-1,33.48910965,126.4961138,2025-09-15,6500000,제주특별자치도,127,https://www.visitbusan.net/uploadImgs/files/cntnts/20191222162111363_thumbL
제 5회 웰니스 숲힐링 축제,서귀포치유의숲+서귀포자연휴양림+붉은오름자연휴양림+사려니숲,2025-06-13,2025-06-17,숲과 숨이 하나의 호흡이 될 때 비로소 느끼는 온전한 쉼. 서귀포 숲이 전하는 푸르른 내일의 희망. 6월 제주의 숲에서 자녀와 함께 휴식과 놀이를 즐겨보자.,제주특별자치도 서귀포시+제주관광공사,제주특별자치도 서귀포시+제주관광공사,,064-738-4544,,,제주특별자치도 서귀포시 산록남로 2271,,33.29193862,126.5279023,2025-09-15,6500000,제주특별자치도,138,https://www.visitbusan.net/uploadImgs/files/cntnts/20191222162111363_thumbL
세계 환경의 날 기념행사 2025 환경 한마당 축제,제주국제컨벤션센터,2025-06-05,2025-06-05,플라스틱 오염 문제에 대한 관심과 공감대를 높이고 지속가능한 자원순환사회로 나아가기 위해 도민과 함께하는 ‘2025 환경 한마당 축제,제주특별자치도,제주특별자치도,,064-748-1021,http://www.la21jeju.or.kr/,,제주특별자치도 서귀포시 중문관광로 224,,33.24128964,126.4244429,2025-09-15,6500000,제주특별자치도,24,https://www.visitbusan.net/uploadImgs/files/cntnts/20191222162111363_thumbL
2025 서귀포 야해페스티벌,자구리공원,2025-06-13,2025-06-14,자구리공원에서 야해 페스티벌과 함께 감성 충전. 에너지 충전하세요 ~,제주특별자치도,제주특별자치도 서귀포시,,064-760-2654,,,제주특별자치도 서귀포시 칠십리로 145,,33.24437926,126.5689408,2025-09-15,6500000,제주특별자치도,73,https://www.visitbusan.net/uploadImgs/files/cntnts/20191222162111363_thumbL
제10회 월대천 축제,외도동 월대천 일대,2025-07-18,2025-07-20,월대천 축제는 제주시 외도동에 위치한 월대천 일원에서 개최되는 지역 축제입니다.,월대천축제추진위원회,외도동주민자치위원회,,064-728-1544,,,제주특별자치도 제주시 월대6길 5,,33.49352506,126.4359884,2025-09-15,6500000,제주특별자치도,146,https://www.visitbusan.net/uploadImgs/files/cntnts/20191222162111363_thumbL
2025 새연교 주말 문화공연 『금토금토 새연쇼』,서귀포항 새연교 일원,2025-07-25,2025-10-25,빛으로 물든 서귀포의 랜드마크 새연교에서 펼쳐지는 특별한 공연. 낭만 가득 밤바다와 함께 설렘 가득한 불꽃쇼까지,제주특별자치도 서귀포시,제주특별자치도 서귀포시,,064-760-2654,https://www.seogwipo.go.kr/group/culture/tourism/main.htm,,제주특별자치도 서귀포시 남성중로 43,,33.2398076,126.5582549,2025-09-15,6500000,제주특별자치도,116,https://www.visitbusan.net/uploadImgs/files/cntnts/20191222162111363_thumbL
농악대축제,시민운동장,2017-10-20,2017-10-22,농악행사,농악보존회,광명시청,광명시의회,02-899-1664,,구름산예술제(시민회관),경기도 광명시 오리로 703,경기도 광명시 하안동 577,37.46251993,126.8711626,2022-09-29,3900000,경기도 광명시,12,https://www.visitbusan.net/uploadImgs/files/cntnts/20191222162111363_thumbL
소하도서관 책축제 팔짱+책을 품다,소하도서관 광장+한내천 일대,2016-04-15,2016-04-15,프리마켓+책축제+전시+공연+체험,소하도서관 청소년수련관,광명시청,,02-2680-0926,https://gmlib.gm.go.kr/front/,팔짱(청소년수련관),경기도 광명시 소하일로 7,경기도 광명시 소하동 1331,37.44545884,126.8879928,2022-09-29,3900000,경기도 광명시,135,https://www.visitbusan.net/uploadImgs/files/cntnts/20191222162111363_thumbL
농악대축제,시민운동장,2018-10-27,2018-10-28,농악행사,농악보존회,광명시청,광명시의회,02-899-1664,,,경기도 광명시 시청로 20,경기도 광명시 철산동 222-1,37.47909912,126.8648475,2022-09-29,3900000,경기도 광명시,76,https://www.visitbusan.net/uploadImgs/files/cntnts/20191222162111363_thumbL
구름산예술제,시민체육관,2018-08-31,2018-09-02,예술 전시+부대행사,한국예술문화단체총연합회 광명지회,광명시청,광명시의회,02-2680-6871,,,경기도 광명시 오리로 703,경기도 광명시 하안동 577,37.46251993,126.8711626,2022-09-29,3900000,경기도 광명시,126,https://www.visitbusan.net/uploadImgs/files/cntnts/20191222162111363_thumbL
제7회 목감천 친환경 축제,우리공원,2019-05-25,2019-05-25,주민자치프로그램 공연+목감천 가요제 등,광명6동주민자치위원회+유관단체,목감천친환경축제위원회,,02-2680-6672,,,경기도 광명시 광명로791번길 6,경기도 광명시 광명동 786,37.4710361,126.8486332,2022-09-29,3900000,경기도 광명시,117,https://www.visitbusan.net/uploadImgs/files/cntnts/20191222162111363_thumbL
평생학습도시 선언 20주년 컨퍼런스,광명시평생학습원,2019-11-01,2019-11-01,평생학습도시 선언 20주년 컨퍼런스+전시,평생학습원,광명시청,광명시의회,02-2680-2549,,,경기도 광명시 오리로854번길 10,경기도 광명시 철산동 419,37.4743772,126.8684796,2022-09-29,3900000,경기도 광명시,107,https://www.visitbusan.net/uploadImgs/files/cntnts/20191222162111363_thumbL
2022 페스티벌 광명,철산역 8차선도로,2022-10-08,2022-10-09,문화백신 기획축제(개막프로그램+제작프로그램+시민참여프로그램+광대전 등),광명시+광명문화재단+광명문화원+한국예술문화단체총연합회 광명지회,광명시청,광명시의회,02-2680-2162,http://gm.go.kr/,,경기도 광명시 철산로 13,,37.4762,126.8677,2022-09-29,3900000,경기도 광명시,-18,https://www.visitbusan.net/uploadImgs/files/cntnts/20191222162111363_thumbL
구름산예술제,시민체육관,2019-05-11,2019-05-12,예술 전시+부대행사,한국예술문화단체총연합회 광명지회,광명시청,광명시의회,02-2680-6229,,,경기도 광명시 오리로 703,경기도 광명시 하안동 577,37.4625199339,126.871162585,2022-09-29,3900000,경기도 광명시,165,https://www.visitbusan.net/uploadImgs/files/cntnts/20191222162111363_thumbL
구름산예술제,광명문화예술교육지원센터 광명극장,2021-10-09,2021-10-10,예술 전시+부대행사,한국예술문화단체총연합회 광명지회,광명시청,광명시의회,02-2680-6229,,,경기도 광명시 철망산로 2,경기도 광명시 하안동 산 718-20,37.4667641149,126.86990079,2022-09-29,3900000,경기도 광명시,172,https://www.visitbusan.net/uploadImgs/files/cntnts/20191222162111363_thumbL
제27회 오리문화제,광명시민체육관 등,2018-08-31,2018-09-01,오리이원익 영우참배+헌화식+전시+체험마당+재현행사 등,광명문화원,광명시청,광명시의회,02-2618-5800,www.gmcc.or.kr/,광명문화원,경기도 광명시 철망산로 42,경기도 광명시 하안동 718-18,37.4674687,126.8732102,2022-09-29,3900000,경기도 광명시,189,https://www.visitbusan.net/uploadImgs/files/cntnts/20191222162111363_thumbL
2025 해맞이 행사,미정,2025-01-01,2025-01-01,"해맞이 행사를 통한 군의 발전과 안녕, 화합은 온 군민과 함께 기원",예산문화원,충청남도 예산군,,041-339-7317,,,개최장소 미정,,,,2024-11-19,4610000,충청남도 예산군,111,https://www.visitbusan.net/uploadImgs/files/cntnts/20191222162111363_thumbL
2024 노원수제맥주축제,화랑대 철도공원 일원,2024-05-25,2024-05-26,30개 브루어리 200종 수제맥주 판매+초청공연 등,노원문화재단,노원문화재단,서울특별시 노원구청,02-2289-3466,https://www.nowonarts.kr/,,,서울시 노원구 공릉동 29-4,,,2024-07-17,3100000,서울특별시 노원구,69,https://www.visitbusan.net/uploadImgs/files/cntnts/20191222162111363_thumbL
2024 댄싱노원,노원역 일원(KB국민은행/롯데백화점 ~ 순복음교회),2024-09-28,2024-09-29,댄싱퍼레이드 전국경연+댄싱페스타+거리예술공연 등,노원문화재단,노원문화재단,서울특별시 노원구청,02-2289-3464,https://www.nowonarts.kr/,,서울시 노원구 동일로 1414,,,,2024-07-17,3100000,서울특별시 노원구,155,https://www.visitbusan.net/uploadImgs/files/cntnts/20191222162111363_thumbL
2024 노원달빛산책,당현천 일원(상계역~ 중계역 2KM 구간),2024-10-18,2024-11-17,예술 등/빛 조각 작품 전시+해외작가전 등,노원문화재단,노원문화재단,서울특별시 노원구청,02-2289-3473,https://www.nowonarts.kr/,,서울시 노원구 한글비석로19길 28,,,,2024-07-17,3100000,서울특별시 노원구,147,https://www.visitbusan.net/uploadImgs/files/cntnts/20191222162111363_thumbL
청남대 재즈토닉페스티벌,청남대,2025-05-23,2025-05-25,문화예술공연+MD부스,CJB,충청북도청,,043-257-5080,,,충청북도 청주시 상당구 문의면 청남대길 646,,,,2024-12-23,6430000,충청북도,114,https://www.visitbusan.net/uploadImgs/files/cntnts/20191222162111363_thumbL
청남대 영춘제,청남대,2025-04-19,2025-05-05,문화예술공연+미술작품 기획전+푸드존+와인페스티벌+지역특산물 홍보 판매장 등,충청북도청,충청북도청,,043-257-5080,,,충청북도 청주시 상당구 문의면 청남대길 646,,,,2024-12-23,6430000,충청북도,193,https://www.visitbusan.net/uploadImgs/files/cntnts/20191222162111363_thumbL
청남대가을축제,청남대 일원,2025-10-25,2025-11-09,국화·조형물작품·야생화 전시+공연+체험,청남대관리사업소,충청북도청,,043-220-6411,,,충청북도 청주시 상당구 문의면 청남대길 646,,,,2024-12-23,6430000,충청북도,54,https://www.visitbusan.net/uploadImgs/files/cntnts/20191222162111363_thumbL
제15회 반딧불 곤충축제,충북농업기술원 일원,2025-06-13,2025-06-15,반딧불 등 정서·반려곤충 체험관 운영 등 부대행사 추진,충북농업기술원,충청북도청,,043-220-5591,,,충청북도 청주시 청원구 오창읍 가곡길 46,,,,2024-12-23,6430000,충청북도,81,https://www.visitbusan.net/uploadImgs/files/cntnts/20191222162111363_thumbL
2024 캠프레이크 페스티벌,부평리 빙어호 일원,2024-06-14,2024-06-23,소양호 주변 감성캠핑장을 중심으로 다양한 이벤트 개최,인제군문화재단,인제군문화재단,강원특별자치도 인제군,033-460-8900,https://www.injefestival.com/summer/index.html,,,강원특별자치도 인제군 남면 부평리 555-2번지,37.998306,128.098465,2024-12-13,4331000,강원특별자치도 인제군,128,https://www.visitbusan.net/uploadImgs/files/cntnts/20191222162111363_thumbL
제6회 인제가을꽃축제,용대관광지 일원,2024-09-28,2024-10-20,가을꽃축제,인제군문화재단,인제군문화재단,강원특별자치도 인제군,033-460-8900,https://www.injefestival.com/flower/index.html,,강원특별자치도 인제군 북면 십이선녀탕길 16(용대리),강원특별자치도 인제군 북면 용대리 1795,38.18560593,128.3061965,2024-12-13,4331000,강원특별자치도 인제군,107,https://www.visitbusan.net/uploadImgs/files/cntnts/20191222162111363_thumbL
제42회 합강문화제,인제잔디구장,2024-10-11,2024-10-13,합강문화제,강원특별자치도 인제군,강원특별자치도 인제군,,033-460-2081,https://www.inje.go.kr,,강원특별자치도 인제군 인제읍 비봉로44번길 113,강원특별자치도 인제군 인제읍 남북리 817,38.05819013,128.164151,2024-12-13,4331000,강원특별자치도 인제군,129,https://www.visitbusan.net/uploadImgs/files/cntnts/20191222162111363_thumbL
춘장대해수욕장 여름문화예술축제,춘장대해수욕장 중앙광장,2024-07-27,2024-07-28,한여름밤의 트롯이야기+춘장대 시네마+춘장대 푸파 페스티벌 등,춘장대해수욕장 운영협의회,충청남도 서천군,,041-950-4016,http://tour.seocheon.go.kr,,충청남도 서천군 서면 춘장대길 20,충청남도 서천군 서면 도둔리 1319,36.16334922,126.5243355,2024-12-19,4580000,충청남도 서천군,88,https://www.visitbusan.net/uploadImgs/files/cntnts/20191222162111363_thumbL
자연산 광어.도미 축제,서면 마량포구 일원,2024-05-04,2024-05-19,맨손으로 광어잡기 체험+기념공원에서 보물찾기,서면개발위원회,서면개발위원회,,041-950-4016,http://tour.seocheon.go.kr,,충청남도 서천군 서면 서인로 56,충청남도 서천군 서면 마량리 339-6,36.1293642,126.5036472,2024-12-19,4580000,충청남도 서천군,86,https://www.visitbusan.net/uploadImgs/files/cntnts/20191222162111363_thumbL
마량포 해넘이.해돋이 축제,서면 마량포구 일원,2024-12-31,2025-01-01,새해 떡국나눔행사+불꽃놀이+버스킹 공연+소원등 달기,서면개발위원회,충청남도 서천군,,041-950-4016,http://tour.seocheon.go.kr,,충청남도 서천군 서면 서인로 56,충청남도 서천군 서면 마량리 339-6,36.1293642,126.5036472,2024-12-19,4580000,충청남도 서천군,87,https://www.visitbusan.net/uploadImgs/files/cntnts/20191222162111363_thumbL
홍원항 자연산 전어.꽃게 축제,서면 홍원항 일원,2024-08-24,2024-09-02,맨손으로 전어 잡기 체험+추억의 놀이 체험+숨겨진 보물을 찾아라+비눗방울 놀이 등,홍원항마을축제추진위원회,홍원항마을축제추진위원회,,041-950-4016,http://tour.seocheon.go.kr,,충청남도 서천군 서면 홍원길 130-3,충청남도 서천군 서면 도둔리 1222-7,36.1588618,126.4992204,2024-12-19,4580000,충청남도 서천군,113,https://www.visitbusan.net/uploadImgs/files/cntnts/20191222162111363_thumbL
한산모시문화제,한산모시관 일원,2024-06-07,2024-06-09,한산모시를 주제로 하는 다양한 프로그램 운영,한산모시문화제추진위원회,충청남도 서천군,문화체육관광부+충청남도+농협등,041-950-4016,www.hansanmosi.kr/,,충청남도 서천군 한산면 충절로 1089,충청남도 서천군 한산면 지현리 60-1,36.0799445,126.7987047,2024-12-19,4580000,충청남도 서천군,29,https://www.visitbusan.net/uploadImgs/files/cntnts/20191222162111363_thumbL
장항 맥문동 꽃 축제,장항읍 송림산림욕장 일원,2024-08-23,2024-08-27,"맥문동 꽃피는 절정기간에 맞춰 공연, 체험, 전시, 판매 등",맥문동꽃축제추진위원회,충청남도 서천군,,041-950-4020,http://tour.seocheon.go.kr,,,충청남도 서천군 장항읍 송림리 산58-48,36.02235855,126.6653676,2024-12-19,4580000,충청남도 서천군,34,https://www.visitbusan.net/uploadImgs/files/cntnts/20191222162111363_thumbL
서천철새여행,조류생태전시관 일원,2024-12-07,2024-12-08,철새 탐조 및 철새 관련 문화행사,서천철새여행추진위원회,충청남도 서천군,,041-950-4256,http://tour.seocheon.go.kr,,충청남도 서천군 마서면 장산로 916,충청남도 서천군 마서면 도삼리 59,36.02280046,126.7426918,2024-12-19,4580000,충청남도 서천군,108,https://www.visitbusan.net/uploadImgs/files/cntnts/20191222162111363_thumbL
서천군 동백꽃 주꾸미 축제,서면 마량포구 일원,2024-03-16,2024-03-31,주꾸미 잡기 체험+각종 체험 프로그램 등,서면개발위원회,충청남도 서천군,충청남도,041-950-4016,http://tour.seocheon.go.kr,,충청남도 서천군 서면 서인로 56,충청남도 서천군 서면 마량리 339-6,36.1293642,126.5036472,2024-12-19,4580000,충청남도 서천군,197,https://www.visitbusan.net/uploadImgs/files/cntnts/20191222162111363_thumbL
영암왕인문화축제,왕인박사유적지 일원,2024-03-28,2024-03-31,공연+낙화놀이+콘테스트+불꽃놀이+퍼레이드,전라남도영암문화관광재단+전라남도영암군향토축제추진위원회,전라남도 영암군청,문화체육관광부+전라남도+한국관광공사,061-470-2259,www.왕인문화축제.kr,,전라남도 영암군 군서면 왕인로 440,전라남도 영암군 군서면 동구림리 산 17,34.75653038,126.6291211,2024-11-19,4940000,전라남도 영암군,49,https://www.visitbusan.net/uploadImgs/files/cntnts/20191222162111363_thumbL
감물감자축제,농촌중심지 활성화 광장,2024-06-14,2024-06-16,농특산물(감자) 홍보 및 지역홍보,감물면 축제추진위원회,충청북도 괴산군청,감물면 기관단체 등,043-830-2432,,,충청북도 괴산군 감물면 충민로신대길 13,,,,2024-07-30,4460000,충청북도 괴산군,148,https://www.visitbusan.net/uploadImgs/files/cntnts/20191222162111363_thumbL
칠성별별락장축제,칠송바위옛시장거리,2024-06-01,2024-06-02,"시장거리 활성화, 고고장",칠성면 축제추진위원회,충청북도 괴산군청,칠성면 기관단체 등,043-830-2492,,,충청북도 괴산군 칠성면 도정로 61,충청북도 괴산군 칠성면 도정리 238-2,,,2024-07-30,4460000,충청북도 괴산군,99,https://www.visitbusan.net/uploadImgs/files/cntnts/20191222162111363_thumbL
달맞이 작은음악회,청사포공원 챔버광장,2025-06-14,2025-06-14,공연행사 등,부산광역시 해운대구청,부산광역시 해운대구청,,051-749-6045,,,부산광역시 해운대구 중동2로 11,부산광역시 해운대구 중동 1378-95,35.16313992,129.1635303,2025-09-08,3330000,부산광역시 해운대구,877,https://www.visitbusan.net/uploadImgs/files/cntnts/20191222162111363_thumbL
부산시 구군여성연합 합창 페스티벌,부산문화회관 대극장,2025-06-17,2025-06-17,해운대구립여성합창단 참가,부산광역시 해운대구청,부산여성연합합창단 해운대구,,051-749-6042,,,부산광역시 해운대구 중동2로 11,부산광역시 해운대구 중동 1378-95,35.16313992,129.1635303,2025-09-08,3330000,부산광역시 해운대구,936,https://www.visitbusan.net/uploadImgs/files/cntnts/20191222162111363_thumbL
송정 한여름밤의 클래식 콘서트,죽도공원 문화광장,2025-06-28,2025-06-28,우쿠라이나 오케스트라와 국내 음악가 협연 클래식 공연,부산광역시 해운대구청,부산광역시 해운대구청,,051-749-6045,,,부산광역시 해운대구 중동2로 11,부산광역시 해운대구 중동 1378-95,35.16313992,129.1635303,2025-09-08,3330000,부산광역시 해운대구,794,https://www.visitbusan.net/uploadImgs/files/cntnts/20191222162111363_thumbL
달너머 별다솜 음악회,달맞이 어울마당,2025-07-25,2025-07-25,문화예술 향유기회 제공을 위한 대중음악 공연 개최,부산광역시 해운대구청,부산광역시 해운대구청,,051-749-6045,,,부산광역시 해운대구 중동2로 11,부산광역시 해운대구 중동 1378-95,35.16313992,129.1635303,2025-09-08,3330000,부산광역시 해운대구,742,https://www.visitbusan.net/uploadImgs/files/cntnts/20191222162111363_thumbL
해운대수목원 여름 음악회,해운대수목원,2025-08-23,2025-08-23,문화소외지역 주민을 위한 대중음악 공연,부산광역시 해운대구청,부산광역시 해운대구청,,051-749-6045,,,부산광역시 해운대구 중동2로 11,부산광역시 해운대구 중동 1378-95,35.16313992,129.1635303,2025-09-08,3330000,부산광역시 해운대구,908,https://www.visitbusan.net/uploadImgs/files/cntnts/20191222162111363_thumbL
제51회신라문화제,대릉원및중심상가등경주관내일원,2024-10-11,2024-10-13,"1962년 제1회를 시작으로 올해 제51회를 맞이한 신라문화제의 예술제(주제공연 및 전시, 예술제, 화평서제 등)",(재)경주문화재단,경상북도경주시,,054-779-6073,https://www.gyeongju.go.kr/sillafestival/index.do,,경상북도 경주시 양정로 260,,35.85619961,129.2247246,2025-09-08,5050000,경상북도 경주시,68,https://www.visitbusan.net/uploadImgs/files/cntnts/20191222162111363_thumbL
홍성역사인물축제,홍주읍성,2025-05-03,2025-05-04,역사인물관련 체험 및 공연 등,(재)홍주문화관광재단,충청남도 홍성군 문화유산과,충청남도 홍성군,041-634-8706,https://hongju.or.kr/home/main.do,홍주읍성,충청남도 홍성군 홍성읍 아문길 27,충청남도 홍성군 홍성읍 오관리 98,36.60172104,126.6613892,2025-08-29,4600000,충청남도 홍성군,118,https://www.visitbusan.net/uploadImgs/files/cntnts/20191222162111363_thumbL
홍성글로벌바비큐페스티벌,홍주읍성,2025-10-30,2025-11-02,한우바비큐 관련 체험 및 판매,(재)홍주문화관광재단,충청남도 홍성군 문화유산과,충청남도 홍성군,041-634-8706,https://hongju.or.kr/home/main.do,홍주읍성,충청남도 홍성군 홍성읍 아문길 27,충청남도 홍성군 홍성읍 오관리 98,36.60172104,126.6613892,2025-08-29,4600000,충청남도 홍성군,46,https://www.visitbusan.net/uploadImgs/files/cntnts/20191222162111363_thumbL
홍성남당항 새조개축제,남당항 해양분수공원 일원,2025-02-07,2025-02-28,새조개 판매 및 공연 행사 등,남당항축제추진위원회,충청남도 홍성군 문화유산과,충청남도 홍성군,041-630-1237,https://www.hongseong.go.kr/tour/index.do,남당항+해양분수공원,충청남도 홍성군 서부면 남당항로213번길 1-1,충청남도 홍성군 서부면 남당리 859-3,36.53883088,126.4722832,2025-08-29,4600000,충청남도 홍성군,135,https://www.visitbusan.net/uploadImgs/files/cntnts/20191222162111363_thumbL
홍성남당항 바다송어축제,남당항 해양분수공원 일원,2025-04-10,2025-05-30,바다송어 판매 및 공연,남당항축제추진위원회,충청남도 홍성군 문화유산과,충청남도 홍성군,041-630-1237,https://www.hongseong.go.kr/tour/index.do,남당항+해양분수공원,충청남도 홍성군 서부면 남당항로213번길 1-1,충청남도 홍성군 서부면 남당리 859-3,36.53883088,126.4722832,2025-08-29,4600000,충청남도 홍성군,120,https://www.visitbusan.net/uploadImgs/files/cntnts/20191222162111363_thumbL
홍성남당항 대하축제,남당항 해양분수공원 일원,2025-08-22,2025-09-07,대하 판매 및 공연,남당항축제추진위원회,충청남도 홍성군 문화유산과,충청남도 홍성군,041-630-1237,https://www.hongseong.go.kr/tour/index.do,남당항+해양분수공원,충청남도 홍성군 서부면 남당항로213번길 1-1,충청남도 홍성군 서부면 남당리 859-3,36.53883088,126.4722832,2025-08-29,4600000,충청남도 홍성군,69,https://www.visitbusan.net/uploadImgs/files/cntnts/20191222162111363_thumbL
홍주읍성 문화제,홍주읍성,2025-10-04,2025-10-04,홍주읍성 활성화를 위한 문화예술 프로그램 진행,(재)홍주문화관광재단,충청남도 홍성군 문화유산과,충청남도 홍성군,041-634-8713,https://hongju.or.kr/home/main.do,홍주읍성,충청남도 홍성군 홍성읍 아문길 27,충청남도 홍성군 홍성읍 오관리 98,36.60172104,126.6613892,2025-08-29,4600000,충청남도 홍성군,36,https://www.visitbusan.net/uploadImgs/files/cntnts/20191222162111363_thumbL
2025 목포항구축제,목포항 및 삼학도 일원,2025-09-26,2025-09-28,파시선상어시장 + 풍어파시길놀이 + 전통경매 + 미디어아트 바다길,전라남도 목포시,목포시축제추진위원회,문화체육관광부+전라남도청+한국관광공사,061-270-8441,https://www.mokpo.go.kr/tour/festival,,전라남도 목포시 삼학로92번길 6,,,,2025-09-03,4800000,전라남도 목포시,-13,https://www.visitbusan.net/uploadImgs/files/cntnts/20191222162111363_thumbL
2025 유달산 봄축제,유달산 및 노적봉 일대,2025-04-05,2025-04-06,퍼레이드+유달산 봄꽃 및 수군문화 콘텐츠 등,전라남도 목포시,목포시축제추진위원회,문화체육관광부+전라남도청+한국관광공사,061-270-8432,https://www.mokpo.go.kr/tour/festival/yudalsan_spring,,전라남도 목포시 유달로 122,,,,2025-09-03,4800000,전라남도 목포시,69,https://www.visitbusan.net/uploadImgs/files/cntnts/20191222162111363_thumbL
2025 목포해상W쇼,평화광장 해상무대 일원,2025-04-26,2025-10-03,바다분수+해상무대공연+불꽃놀이 등,전라남도 목포시,목포시축제추진위원회,문화체육관광부+전라남도청+한국관광공사,061-270-8431,https://mokpowshow.co.kr/,,전라남도 목포시 미항로 115,,,,2025-09-03,4800000,전라남도 목포시,61,https://www.visitbusan.net/uploadImgs/files/cntnts/20191222162111363_thumbL
충주시립우륵국악단 상반기 토요상설공연 ’국악버스킹 5회차’,풍류문화관,2025-06-07,2025-06-07,국악 공연,충청북도 충주시청,충청북도 충주시청,,043-850-5962,https://www.chungju.go.kr/culture/,,충청북도 충주시 중앙로 128,충청북도 충주시 성내동 215,36.9706185,127.9372217,2025-08-31,4390000,충청북도 충주시,151,https://www.visitbusan.net/uploadImgs/files/cntnts/20191222162111363_thumbL
창작오페라 비-중원고구려비의 연가,중앙탑공원 야외특설무대,2025-06-07,2025-06-07,창작오페라 공연,충청북도 충주시청,충청북도 충주시청,,043-850-5964,https://www.chungju.go.kr/culture/,,충청북도 충주시 중앙로 128,충청북도 충주시 성내동 215,36.9706185,127.9372217,2025-08-31,4390000,충청북도 충주시,88,https://www.visitbusan.net/uploadImgs/files/cntnts/20191222162111363_thumbL
충주본색 : 국악 ON락,아트뱅크 243,2025-06-14,2025-06-14,퓨전국악 공연,충청북도 충주시청,충청북도 충주시청,,043-850-5964,https://www.chungju.go.kr/culture/,,충청북도 충주시 중앙로 128,충청북도 충주시 성내동 215,36.9706185,127.9372217,2025-08-31,4390000,충청북도 충주시,13,https://www.visitbusan.net/uploadImgs/files/cntnts/20191222162111363_thumbL
충주시립우륵국악단 상반기 토요상설공연 ’국악버스킹 6회차’,풍류문화관,2025-06-21,2025-06-21,국악 공연,충청북도 충주시청,충청북도 충주시청,,043-850-5962,https://www.chungju.go.kr/culture/,,충청북도 충주시 중앙로 128,충청북도 충주시 성내동 215,36.9706185,127.9372217,2025-08-31,4390000,충청북도 충주시,109,https://www.visitbusan.net/uploadImgs/files/cntnts/20191222162111363_thumbL
2024 울진대게와 붉은대게 축제,후포항 일원(왕돌초광장),2024-02-22,2024-02-25,개막행사+공연행사+문화행사+참여행사+상설행사,울진군축제발전위원회,경상북도 울진군,한수원㈜ 한울원자력본부,054-789-6742,,,경상북도 울진군 후포면 울진대게로 169-52,,36.682353,129.4599525,2024-11-13,5250000,경상북도 울진군,132,https://www.visitbusan.net/uploadImgs/files/cntnts/20191222162111363_thumbL
제38회 평해단오제,평해읍 시가지,2024-06-08,2024-06-09,제례+월송큰줄당기기+공연,"울진문화원, 평해읍 청년회",울진군문화원,울진군+한수원㈜ 한울원자력본부,054-789-6891,,,,경상북도 울진군 평해읍 평해리 870-1,36.72621403,129.4417418,2024-11-13,5250000,경상북도 울진군,70,https://www.visitbusan.net/uploadImgs/files/cntnts/20191222162111363_thumbL
2024 죽변항 수산물축제,죽변항 일원,2024-11-08,2024-11-10,공식행사+문화행사+체험행사+상설부대행사,울진군축제발전위원회,경상북도 울진군,한울원자력본부+죽변수협,054-789-5485,,,,경상북도 울진군 죽변면 후정리 330-47,37.0557383546,129.4173476461,2024-11-13,5250000,경상북도 울진군,76,https://www.visitbusan.net/uploadImgs/files/cntnts/20191222162111363_thumbL
2024 관악강감찬축제,낙성대공원,2024-10-11,2024-10-13,고려 명장 강감찬 장군의 호국정신을 기리고자 개최되는 서울의 대표적인 역사문화축제이자 관악구민이 함께 만들고 즐기는 축제,관악문화재단,서울특별시 관악구청,문화체육관광부+서울특별시청,02-828-5763,https://ggcfest.com/,,서울특별시 관악구 낙성대로 77,서울특별시 관악구 봉천동 738-329,37.47197208,126.959371,2025-03-10,3200000,서울특별시 관악구,796,https://www.visitbusan.net/uploadImgs/files/cntnts/20191222162111363_thumbL
리딩데이:관악산책,관악으뜸공원,2024-10-12,2024-10-12,모든 세대가 즐길 수 있는 다양한 체험프로그램과 문화 예술 공연 등 야외에서 책을 읽고 문화생활을 즐기는 아웃도어 라이브러리,관악문화재단,관악문화재단,,02-878-7460,https://lib.gwanak.go.kr,,서울특별시 관악구 신림로 21,,37.468493,126.945449,2025-03-10,3200000,서울특별시 관악구,1118,https://www.visitbusan.net/uploadImgs/files/cntnts/20191222162111363_thumbL
제20회 쇠소깍축제,하효항 일대,2024-09-07,2024-09-08,개회식+축하공연+불꽃놀이+보물찾기+테우 및 카약 무료체험+현장참여 이벤트 등,효돈동연합청년회,효돈동연합청년회,효돈동주민센터,064-760-4623,https://seogwipo.go.kr/festivals/blacksand/info/intro.htm,,제주특별자치도 서귀포시 쇠소깍로 151-7,제주특별자치도 서귀포시 하효동 999-3,33.25016656,126.620922,2025-06-24,6520000,제주특별자치도 서귀포시,129,https://www.visitbusan.net/uploadImgs/files/cntnts/20191222162111363_thumbL
제22회 예래생태체험축제,예래 논짓물 일원,2024-09-13,2024-09-14,가요제+달빛걷기+소원등 만들기 등,예래생태체험축제위원회,예래동주민자치위원회,,064-760-4845,https://seogwipo.go.kr/festivals/yerae/info/intro.htm,,제주특별자치도 서귀포시 예래해안로 256,제주특별자치도 서귀포시 하예동 532-3,33.23654976,126.3887523,2025-06-24,6520000,제주특별자치도 서귀포시,56,https://www.visitbusan.net/uploadImgs/files/cntnts/20191222162111363_thumbL
제19회 중문칠선녀축제,중문관광단지 내 테디베엄뮤지엄 앞 도로,2024-10-06,2024-10-06,중문 칠선녀 축제,중문동연합청년회,제주특별자치도 서귀포시,,064-760-4824,https://seogwipo.go.kr/festivals/sevenbeauty/info/intro.htm,,,제주특별자치도 서귀포시 색달동 2864-4,33.25074441,126.4124638,2025-06-24,6520000,제주특별자치도 서귀포시,155,https://www.visitbusan.net/uploadImgs/files/cntnts/20191222162111363_thumbL
제30회 서귀포칠십리축제,제주월드컵경기장 광장 일대,2024-10-18,2024-10-20,마을문화예술제+길트기퍼레이드(제주캐릭터행진)+미디어아트쇼+칠십리역사테마존+칠십리흥놀이터+가요제 및 각종 공연(체험) 등,서귀포칠십리축제추진위원회,제주특별자치도 서귀포시,,064-760-3942,https://seogwipo.go.kr/festivals/70ni/info/intro.htm,,제주특별자치도 서귀포시 월드컵로 33,,33.246219,126.509275,2025-06-24,6520000,제주특별자치도 서귀포시,127,https://www.visitbusan.net/uploadImgs/files/cntnts/20191222162111363_thumbL
제26회 서귀포 유채꽃 국제걷기대회,제주월드컵경기장,2025-03-22,2025-03-23,코스별 걷기 행사 및 홍보체험 부스 운영 등,(사)서귀포시관광협의회,제주특별자치도 서귀포시,,064-739-7201,https://cafe.daum.net/seogwipo-walking,,제주특별자치도 서귀포시 월드컵로 33,,33.246219,126.509275,2025-06-24,6520000,제주특별자치도 서귀포시,118,https://www.visitbusan.net/uploadImgs/files/cntnts/20191222162111363_thumbL
제2회 예래 사자마을 벚꽃 봄나들이 행사,예래 논짓물 일원,2025-03-29,2025-03-30,"공연, 체험프로그램 등 운영",예래사자마을봄꽃나들이 추진위원회,상예1리마을회,서귀포시 예래동,064-760-4845,https://seogwipo.go.kr/festivals/yerae/info/intro.htm,,제주특별자치도 서귀포시 예래해안로 256,,33.23654976,126.3887523,2025-06-24,6520000,제주특별자치도 서귀포시,164,https://www.visitbusan.net/uploadImgs/files/cntnts/20191222162111363_thumbL
제42회 서귀포유채꽃축제,서귀포시 표선면 가시리 유채꽃광장 일대,2025-03-29,2025-03-30,유채꽃밭 관람+각종 공연(체험) 등,서귀포유채꽃축제조직위원회,제주특별자치도 서귀포시,,064-760-3942,https://seogwipo.go.kr/festivals/uchae/info/intro.htm,,제주특별자치도 서귀포시 표선면 녹산로 381-17,,33.38340703,126.7356923,2025-06-24,6520000,제주특별자치도 서귀포시,134,https://www.visitbusan.net/uploadImgs/files/cntnts/20191222162111363_thumbL
가파도 청보리 축제,가파도 상동항,2025-04-01,2025-04-30,가파도 청보리 밭+돌담길 걷기 등,가파도청보리축제위원회,가파도청보리축제위원회,,064-794-7130,https://www.seogwipo.go.kr/festivals/cheongbori/index.htm,,제주특별자치도 서귀포시 대정읍 가파로67번길,,,,2025-06-24,6520000,제주특별자치도 서귀포시,101,https://www.visitbusan.net/uploadImgs/files/cntnts/20191222162111363_thumbL
제29회 한라산 청정고사리 축제,서귀포시 남원읍 한남리 산 76-7 일원,2025-04-26,2025-04-27,고사리를 테마로한 각종 체험행사 및 공연 등 진행,남원읍 축제위원회,남원읍사무소,,064-760-4181,http://www.jejugosari.net/,,,제주특별자치도 서귀포시 남원읍 한남리 산 76-6,33.33172648,126.680997,2025-06-24,6520000,제주특별자치도 서귀포시,34,https://www.visitbusan.net/uploadImgs/files/cntnts/20191222162111363_thumbL
제주 성읍마을 정의현감 행차재현 및 전통민요 공연,제주성읍마을 남문광장,2025-04-19,2025-09-20,"정의현감 행차재현, 취타대 거리행진 및 무대공연, 전통민속·음식 체험, 전통민요 공연 등(* 개최시기: 5월, 6월, 7월, 9월 셋째주 토요일)",(사)성읍민속마을보존회+성읍1리 마을회,제주특별자치도 서귀포시,,064-787-1306,https://seogwipo.go.kr/festivals/seongeup/info/intro.htm,,제주특별자치도 서귀포시 표선면 성읍정의현로 30,,33.384904,126.8014971,2025-06-24,6520000,제주특별자치도 서귀포시,205,https://www.visitbusan.net/uploadImgs/files/cntnts/20191222162111363_thumbL
강동선사문화축제,서울 암사동 유적,2023-10-06,2023-10-08,신석기시대 체험 축제,강동구청,강동구청,,02-3425-5246,https://www.gdsunsafestival.com/index.asp,,서울특별시 강동구 올림픽로 875 (암사동),서울특별시 강동구 암사동 139-2,37.55985381,127.1308316,2023-07-25,3240000,서울특별시 강동구,721,https://www.visitbusan.net/uploadImgs/files/cntnts/20191222162111363_thumbL
2023 관악겨울예술축제 : Winter Festival is Coming to Town,관악문화재단 관악아트홀,2023-11-23,2024-01-28,전세대가 공감할 수 있는 다채로운 공연/전시 프로그램을 통해 예술로 따뜻한 온기를 전하는 관악겨울예술축제,관악문화재단,서울특별시 관악구청,,02-828-5854,https://gfac.or.kr/,,서울특별시 관악구 신림로3길 35,서울특별시 관악구 신림동 209-1,37.46759765,126.9448709,2025-03-10,3200000,서울특별시 관악구,903,https://www.visitbusan.net/uploadImgs/files/cntnts/20191222162111363_thumbL
2024 그루브 인 관악,별빛내린천(도림천),2024-06-15,2024-06-16,관악구 특성화 장소에서 펼쳐지는 글로벌 스트리트 컬처 축제,관악문화재단,서울특별시 관악구청,,02-828-5764,https://gfac.or.kr/,,서울특별시 관악구 관천로 53,서울특별시 관악구 신림동 1472-1,37.48474926,126.9250817,2025-03-10,3200000,서울특별시 관악구,1034,https://www.visitbusan.net/uploadImgs/files/cntnts/20191222162111363_thumbL
2024 관악봄축제 HAPPY FESTIVAL,관악구 별빛내린천 수변무대 일대,2024-05-04,2024-05-05,지역의 고유 장소인 별빛내린천과 독서문화자원을 활용하여 전세대 공감을 일으키는 문화 예술 축제,관악문화재단,서울특별시 관악구청,서울특별시청,02-828-5825,https://gfac.or.kr/,,서울특별시 관악구 신림로3길 35,서울특별시 관악구 신림동 209-1,37.46759765,126.9448709,2025-03-10,3200000,서울특별시 관악구,1095,https://www.visitbusan.net/uploadImgs/files/cntnts/20191222162111363_thumbL
백화산 해맞이 행사,백화산 정상,2026-01-01,2026-01-01,신년 해맞이 행사,태안청년회의소,태안청년회의소,,041-670-2761,,,,충청남도 태안군 태안읍 상옥리 산139-2,36.7674649,126.3019641,2025-03-05,4620000,충청남도 태안군,23,https://www.visitbusan.net/uploadImgs/files/cntnts/20191222162111363_thumbL
연포 해맞이 행사,연포 해수욕장,2026-01-01,2026-01-01,신년 해맞이 행사,연포해수욕장번영회,연포해수욕장번영회,,041-670-2761,,,,충청남도 태안군 근흥면 도황리 1526-170,36.69434027,126.2101823,2025-03-05,4620000,충청남도 태안군,102,https://www.visitbusan.net/uploadImgs/files/cntnts/20191222162111363_thumbL
꽃지 해넘이 행사,꽃지 해수욕장,2025-12-31,2025-12-31,해넘이 행사,태안반도안면청년회,태안반도안면청년회,,041-670-2761,,,,충청남도 태안군 안면읍 승언리 339-285,36.5012829,126.3346213,2025-03-05,4620000,충청남도 태안군,136,https://www.visitbusan.net/uploadImgs/files/cntnts/20191222162111363_thumbL
솔향기길 축제,꾸지나무골 해수욕장,2025-10-01,2025-10-31,솔향기길 트레킹,솔향기길축제추진위원회,솔향기길축제추진위원회,,041-670-2761,,세부 일정 미정,,충청남도 태안군 이원면 내리 498-4,36.93542524,126.2931414,2025-03-05,4620000,충청남도 태안군,92,https://www.visitbusan.net/uploadImgs/files/cntnts/20191222162111363_thumbL
모래조각힐링페스타,몽산포 해수욕장,2025-09-01,2025-09-30,모래조각 전시전 및 모래체험활동 등,충청남도 태안군 관광진흥과,충청남도 태안군 관광진흥과,,041-670-2761,,,,충청남도 태안군 남면 신장리 65-24,36.670479,126.287511,2025-03-05,4620000,충청남도 태안군,177,https://www.visitbusan.net/uploadImgs/files/cntnts/20191222162111363_thumbL
태안 반려동물 해변운동회,꽃지해수욕장,2025-05-31,2025-05-31,반려동물 동반 해변테마 운동회 행사,충청남도 태안군 관광진흥과,충청남도 태안군 관광진흥과,,041-670-2691,,,,충남남도 태안군 안면읍 승언리 244-12,36.4950891,126.3391808,2025-03-05,4620000,충청남도 태안군,117,https://www.visitbusan.net/uploadImgs/files/cntnts/20191222162111363_thumbL
가족사랑명품클래식 공연,숭실대학교 한경직기념관,2025-06-07,2025-06-07,세계적인 지휘자 금난새와 함께하는 해설이 있는 클래식공연,서울특별시 동작구청 문화정책과,"서울특별시 동작구청, 동작문화재단",KB국민은행,02-820-9657,www.dongjak.go.kr,,서울특별시 동작구 노량진로 134,서울특별시 동작구 노량진동 62-8,37.51336537,126.9408802,2025-04-29,3190000,서울특별시 동작구,1177,https://www.visitbusan.net/uploadImgs/files/cntnts/20191222162111363_thumbL
제41회 서귀포유채꽃축제,서귀포시 표선면 가시리 유채꽃광장 일대,2024-03-30,2024-03-31,개막식+댄스 플래시몹+차세대 우리춤 페스티벌+유채꽃밭 관람 및 각종 공연(체험) 등,서귀포유채꽃축제조직위원회,제주특별자치도 서귀포시,,064-760-3942,https://seogwipo.go.kr/festivals/uchae/info/intro.htm,,제주특별자치도 서귀포시 표선면 녹산로 381-17,제주특별자치도 서귀포시 표선면 가시리 산 41-3,33.38340703,126.7356923,2025-06-24,6520000,제주특별자치도 서귀포시,102,https://www.visitbusan.net/uploadImgs/files/cntnts/20191222162111363_thumbL
제26회 유채꽃국제걷기대회,제주월드컵경기장,2024-03-23,2024-03-24,유채꽃 걷기 대회,(사)서귀포시관광협의회,제주특별자치도 서귀포시+(사)한국체육진흥회,,064-760-3945,https://cafe.daum.net/seogwipo-walking,,제주특별자치도 서귀포시 월드컵로 33,,33.246219,126.509275,2025-06-24,6520000,제주특별자치도 서귀포시,148,https://www.visitbusan.net/uploadImgs/files/cntnts/20191222162111363_thumbL
제13회 가파도 청보리 축제,가파도 상동항,2024-04-06,2024-04-28,청보리 밭+올레길 걷기+소망돌탑쌓기+소라낚시+보물찾기+이벤트 게임 등,가파도청보리축제위원회,가파도청보리축제위원회,,064-794-7130,https://www.seogwipo.go.kr/festivals/cheongbori/index.htm,,제주특별자치도 서귀포시 대정읍 가파로67번길,,33.1688979,126.271532,2025-06-24,6520000,제주특별자치도 서귀포시,116,https://www.visitbusan.net/uploadImgs/files/cntnts/20191222162111363_thumbL
한라산청정고사리축제,국가태풍센터 앞 일대,2024-04-13,2024-04-14,고사리 꺽기 체험+고사리 풍습체험+고사리 피자 만들기+연형뽑기 등,남원읍 축제위원회,남원읍사무소,,064-760-4181,http://www.jejugosari.net/,,,제주특별자치도 서귀포시 남원읍 한남리 산 76-6,33.33172648,126.680997,2025-06-24,6520000,제주특별자치도 서귀포시,74,https://www.visitbusan.net/uploadImgs/files/cntnts/20191222162111363_thumbL
보목자리돔축제,서귀포시 보목마을 포구 일원,2024-05-31,2024-06-02,보목해안도로 걷기+자리돔 맨손잡기+카약 체험+자리돔 경연 등,보목어촌계,보목자리돔축제위원회,,064-733-3508,https://www.seogwipo.go.kr/festivals/damselfish/index.htm,,제주특별자치도 서귀포시 보목포로 46,,33.23921289,126.6067626,2025-06-24,6520000,제주특별자치도 서귀포시,110,https://www.visitbusan.net/uploadImgs/files/cntnts/20191222162111363_thumbL
제29회 표선해변 하얀모래축제,표선해수욕장 일대,2024-08-10,2024-08-11,개막식+맨손 광어잡기+조개잡기+씨름대회+기요제 등,표선리청년회,표선리마을회,,064-760-4438,https://seogwipo.go.kr/festivals/pyoseon/index.htm,,,제주특별자치도 서귀포시 표선면 표선리 464-3,33.32847277,126.8365477,2025-06-24,6520000,제주특별자치도 서귀포시,87,https://www.visitbusan.net/uploadImgs/files/cntnts/20191222162111363_thumbL
섬 간재미축제,도초 수국정원일원,2025-04-19,2025-04-20,개막식+간재미요리대회+간재미초무침만들기+판매행사등,축제추진위원회,전라남도 신안군청,,061-240-8410,https://tour.shinan.go.kr/,,,전라남도 신안군 도초면 지남리 973,,,2025-08-08,5010000,전라남도 신안군,165,https://www.visitbusan.net/uploadImgs/files/cntnts/20191222162111363_thumbL
100+4 피아노섬 축제,1004뮤지엄파크,2025-04-26,2025-04-27,개막식+전시공연+체험프로그램+특별기획전+푸드코드운영등,축제추진위원회,전라남도 신안군청,,061-240-8353,https://tour.shinan.go.kr/,,전라남도 신안군 자은면 자은서부2길 508-65,,,,2025-08-08,5010000,전라남도 신안군,60,https://www.visitbusan.net/uploadImgs/files/cntnts/20191222162111363_thumbL
신안 세계 김밥페스타,1004뮤지엄파크,2025-04-26,2025-04-27,개막식+체험프로그램+깁밥경연대회등,축제추진위원회,전라남도 신안군청,,061-240-4132,https://tour.shinan.go.kr/,,전라남도 신안군 자은면 자은서부2길 508-65,,,,2025-08-08,5010000,전라남도 신안군,81,https://www.visitbusan.net/uploadImgs/files/cntnts/20191222162111363_thumbL
옥도 작약 꽃 축제,옥도 작약 정원,2025-05-09,2025-05-17,개막식+전시공연+체험프로그램+특별기획전등,축제추진위원회,전라남도 신안군청,,061-240-8686,https://tour.shinan.go.kr/,,전라남도 신안군 하의면 옥도길 58,,,,2025-08-08,5010000,전라남도 신안군,112,https://www.visitbusan.net/uploadImgs/files/cntnts/20191222162111363_thumbL
라벤더 축제,안좌 퍼플섬,2025-05-16,2025-05-25,개막식+전시공연+체험프로그램+특별기획전등,축제추진위원회,전라남도 신안군청,,061-240-8129,https://tour.shinan.go.kr/,,전라남도 신안군 안좌면 소곡두리길 257-35,,,,2025-08-08,5010000,전라남도 신안군,137,https://www.visitbusan.net/uploadImgs/files/cntnts/20191222162111363_thumbL
신안 샴막 예술 축제,비금면 일원,2025-05-17,2025-05-18,개막식+전시공연+체험프로그램+특별기획전+학술대회등,축제추진위원회,전라남도 신안군청,,061-240-8679,https://tour.shinan.go.kr/,,전라남도 신안군 비금면 비금북부길 573-1,,,,2025-08-08,5010000,전라남도 신안군,40,https://www.visitbusan.net/uploadImgs/files/cntnts/20191222162111363_thumbL
K-분식페스티벌 &나루터영화제,노량진축구장,2025-09-20,2025-09-20,K-분식과 영화가 만나 맛과 감성을 함께 즐긴다,서울특별시 동작구청 문화정책과,서울특별시 동작구청,서울특별시,02-820-9657,www.dongjak.go.kr,,서울특별시 동작구 노량진로 134,서울특별시 동작구 노량진동 62-8,37.51336537,126.9408802,2025-04-29,3190000,서울특별시 동작구,1437,https://www.visitbusan.net/uploadImgs/files/cntnts/20191222162111363_thumbL
동작서커스데이,노량진축구장,2025-09-21,2025-09-21,도심속에서 펼쳐지는 환상의 서커스 대축제,동작문화재단,서울특별시 동작문화재단,서울특별시,02-820-9221,www.idfac.or.kr/,,서울특별시 동작구 성대로25가길 8,서울특별시 동작구 상도동 198-11,37.49942737,126.9382595,2025-04-29,3190000,서울특별시 동작구,1097,https://www.visitbusan.net/uploadImgs/files/cntnts/20191222162111363_thumbL
세계불꽃축제with 버스킹,노량진축구장,2025-09-27,2025-09-27,불꽃과 선율이 만나는 특별한 밤 서울불꽃음악회,동작문화재단,서울특별시 동작문화재단,서울특별시,02-820-9356,www.idfac.or.kr/,,서울특별시 동작구 성대로25가길 8,서울특별시 동작구 상도동 198-11,37.49942737,126.9382595,2025-04-29,3190000,서울특별시 동작구,1280,https://www.visitbusan.net/uploadImgs/files/cntnts/20191222162111363_thumbL
동작댄스데이,노량진축구장,2025-09-28,2025-09-28,댄스대회+길거리 댄스교습소,동작문화재단,서울특별시 동작문화재단,서울특별시,02-820-9657,www.idfac.or.kr/,,서울특별시 동작구 성대로25가길 8,서울특별시 동작구 상도동 198-11,37.49942737,126.9382595,2025-04-29,3190000,서울특별시 동작구,1037,https://www.visitbusan.net/uploadImgs/files/cntnts/20191222162111363_thumbL
도심속바다축제,노량진축구장 및 야구장,2025-10-25,2025-10-26,문화예술공연+먹거리부스운영+체험프로그램,"서울특별시 동작구청 문화정책과, 수협노량진수산(주)","서울특별시 동작구청 문화정책과, 수협노량진수산(주)",서울특별시,02-820-9657,www.dongjak.go.kr,,서울특별시 동작구 노량진로 134,서울특별시 동작구 노량진동 62-8,37.51336537,126.9408802,2025-04-29,3190000,서울특별시 동작구,1297,https://www.visitbusan.net/uploadImgs/files/cntnts/20191222162111363_thumbL
칠포재즈페스티벌,칠포해수욕장,2025-06-14,2025-06-15,국내외 유명뮤지션이 펼치는국제규모의 재즈축제,칠포재즈축제위원회,칠포재즈축제위원회,경상북도 포항시,,,,경상북도 포항시 북구 흥해읍 해안로 1374,,,,2025-04-23,5020000,경상북도 포항시,116,https://www.visitbusan.net/uploadImgs/files/cntnts/20191222162111363_thumbL
2024 포항국제음악제,포항문화예술회관 등,2024-11-01,2024-11-08,클래식페스티벌,(재)포항문화재단,경상북도 포항시+(재)포항문화재단,,054-289-7800,,,경상북도 포항시 남구 장기면 장기로 452,경상북도 포항시 남구 장기면 서촌리 287,,,2025-04-23,5020000,경상북도 포항시,144,https://www.visitbusan.net/uploadImgs/files/cntnts/20191222162111363_thumbL
제4회 포항 장기유배문화제,장기유배문화체험촌 등,2025-04-19,2025-04-20,백일장+사생대회+유배길투어+토크콘서트 등,(재)포항문화재단,경상북도 포항시+(재)포항문화재단,,054-289-7800,,,경상북도 포항시 남구 희망대로 850,경상북도 포항시 남구 대도동 303-1,,,2025-04-23,5020000,경상북도 포항시,165,https://www.visitbusan.net/uploadImgs/files/cntnts/20191222162111363_thumbL
제천국제음악영화제,예술의전당 + 제천시 명동 일원(변경가능),2025-09-04,2025-09-09,음악영화제,제천국제음악영화제집행위원회,제천국제음악영화제집행위원회,충청북도 제천시,043-646-2242,http://www.jimff.org,,충청북도 제천시 의림대로12길 14-1,충청북도 제천시 명동 155-1,37.136923,128.2065521,2025-05-14,4400000,충청북도 제천시,164,https://www.visitbusan.net/uploadImgs/files/cntnts/20191222162111363_thumbL
인천펜타포트 락 페스티벌,송도달빛축제공원,2025-08-01,2025-08-03,펜타포트 락 페스티벌+F&B존+펜타포트 사전공연+펜타포트 20주년 팝업스토어+펜타 슈퍼루키+펜타포트 라이브 클럽파티+펜타포트 쇼케이스 등,인천관광공사+㈜경기일보,인천광역시,문화체육관광부+한국관광공사,032-899-7423,https://pentaport.co.kr/,,인천광역시 연수구 센트럴로 350,,37.40785375,126.6325097,2025-08-25,B551011,한국관광공사,873,https://www.visitbusan.net/uploadImgs/files/cntnts/20191222162111363_thumbL
임실N치즈축제,임실치즈테마파크+임실치즈마을+임실읍 일원,2025-10-08,2025-10-12,임실N치즈 쭉쭉늘려 내치즈 만들기+디저트 퐁뒤체험+대형 쌀피자 등,임실N치즈축제 제전위원회,임실N치즈축제 제전위원회,문화체육관광부+농림축산식품부+교육부+한국관광공사+전북특별자치도청+전북특별자치도 임실군청,063-643-3900,www.imsilfestival.com,,전북특별자치도 임실군 성수면 도인2길 50(성수면),전북특별자치도 임실군 성수면 도인리 689,35.63310203,127.3012578,2025-08-25,B551011,한국관광공사,60,https://www.visitbusan.net/uploadImgs/files/cntnts/20191222162111363_thumbL
장수한우랑사과랑축제,전북 장수군 장수읍 의암공원 일원,2025-09-18,2025-09-21,장수한우마당+사과마당+레드푸드 존+장수레드푸드 사찰음식만들기체험+전국한우곤포나르기체험+장수사과팔찌만들기체험 등,사)장수한우랑사과랑축제추진위원회,사)장수한우랑사과랑축제추진위원회,전북특별자치도청,063-350-2356,https://www.jangsufestival.com/index.php,,전북특별자치도 장수군 장수읍 한누리로 378,,35.64023661,127.519819,2025-08-25,B551011,한국관광공사,186,https://www.visitbusan.net/uploadImgs/files/cntnts/20191222162111363_thumbL
정남진 장흥 물축제,장흥군 탐진강 및 정남진 편백숲우드랜드,2025-07-26,2025-08-03,장흥 Rock 페스티벌+살수대첩 거리 퍼레이드+지상 최대의 물싸움+황금물고기(대왕장어)를 잡아라+글로벌 워터월드(워터樂 풀파티)+수중줄다리기 등,재단법인 장흥축제관광재단,전라남도 장흥군,문화체육관광부+전라남도청+한국관광공사+한국수자원공사(전남 서남권지사),061-864-5770,https://www.jangheung.go.kr/festival,,,전라남도 장흥군 장흥읍 건산리 805,34.67840385,126.9049709,2025-08-25,B551011,한국관광공사,87,https://www.visitbusan.net/uploadImgs/files/cntnts/20191222162111363_thumbL
정선아리랑제,정선공설운동장,2025-09-25,2025-09-28,개막식 주제공연+전국아리랑경창대회+아리랑 퍼레이드+정선전통 맹글장 등,정선아리랑문화재단,강원특별자치도 정선군,,033-560-3013,http://arirangfestival.kr,,,강원특별자치도 정선군 정선읍 봉양리 104,37.37719875,128.6659737,2025-08-25,B551011,한국관광공사,123,https://www.visitbusan.net/uploadImgs/files/cntnts/20191222162111363_thumbL
진도신비의바닷길축제,전남 진도군 고군면 회동리 일원,2025-03-29,2025-04-01,신비의바닷길체험+진도무형문화재 공연 및 체험+신비의도자기만들기+컬러풀진도등,진도군축제추진위원회,전라남도 진도군,,061-540-3408,https://www.jindo.go.kr/tour/sub.cs?m=99,,전라남도 진도군 고군면 신비의바닷길 74,전라남도 진도군 고군면 금계리 153-1,34.43275415,126.3518288,2025-08-25,B551011,한국관광공사,108,https://www.visitbusan.net/uploadImgs/files/cntnts/20191222162111363_thumbL
충주시립우륵국악단 호국음악회 ’애국가’,충주시문화회관,2025-06-19,2025-06-19,호국선열의 숭고한 정신을 기리는 음악회,충청북도 충주시청,충청북도 충주시청,,043-850-5962,https://www.chungju.go.kr/culture/,,충청북도 충주시 중앙로 128,충청북도 충주시 성내동 215,36.9706185,127.9372217,2025-08-31,4390000,충청북도 충주시,34,https://www.visitbusan.net/uploadImgs/files/cntnts/20191222162111363_thumbL
사물놀이 몰개 무대콘서트 ’공간’,충주시문화회관,2025-06-27,2025-06-27,"비나리, 사물놀이 등",충청북도 충주시청,충청북도 충주시청,,043-850-5963,https://www.chungju.go.kr/culture/,,충청북도 충주시 중앙로 128,충청북도 충주시 성내동 215,36.9706185,127.9372217,2025-08-31,4390000,충청북도 충주시,119,https://www.visitbusan.net/uploadImgs/files/cntnts/20191222162111363_thumbL
관악구 협치과제 S1472 어린이주간,관천로 문화플랫폼 S1472 및 봉림교 주변,2023-05-05,2023-05-07,가정의 달 5월+ 어린이와 가족 관람객들이 ‘별빛내린천’과 ‘관천로 문화플랫폼 S1472’를 중심으로 함께 즐길 수 있는 다양한 예술적 프로그램 운영,서울특별시 관악구청,관악문화재단,,02-6357-5001,https://gfac.or.kr/,,서울특별시 관악구 관천로 53,서울특별시 관악구 신림동 1472-1,37.48474926,126.9250817,2025-03-10,3200000,서울특별시 관악구,1027,https://www.visitbusan.net/uploadImgs/files/cntnts/20191222162111363_thumbL
2023 관악어린이가족축제_관악봄봄,별빛내린천,2023-05-20,2023-05-20,공연_전시 및 체험 프로그램_플리마켓_부스 운영 등,관악문화재단,서울특별시 관악구청+관악문화재단,,02-828-5825,https://gfac.or.kr/,,서울특별시 관악구 신림로 3길 35,서울특별시 관악구 신림동 209-1,37.46759765,126.9448709,2025-03-10,3200000,서울특별시 관악구,1007,https://www.visitbusan.net/uploadImgs/files/cntnts/20191222162111363_thumbL
관악구 협치과제 이십세기 음악상점,별빛내린천 일대,2023-06-17,2023-06-18,레트로를 컨셉으로 하여 전 연령대가 함께 즐길 수 있는 세대 공감 문화 소통 프로그램,서울특별시 관악구청,관악문화재단,,02-6357-5001,https://gfac.or.kr/,,서울특별시 관악구 관천로 53,서울특별시 관악구 신림동 1472-1,37.48474926,126.9250817,2025-03-10,3200000,서울특별시 관악구,1365,https://www.visitbusan.net/uploadImgs/files/cntnts/20191222162111363_thumbL
2023 GIG Festival,별빛내린천,2023-07-01,2023-07-02,모든 장르의 스트릿 댄스 배틀_댄스 워크숍_플리마켓_전시 등 다양한 스트릿 문화를 통해 청년뿐만 아니라 중장년층까지 모두가 댄서가 되어 즐길 수 있는 스트릿댄스 축제,관악문화재단,서울특별시 관악구청,서울특별시 관악구청,02-828-5764,https://gfac.or.kr/,,서울특별시 관악구 신림로 3길 35,서울특별시 관악구 신림동 209-1,37.46759765,126.9448709,2025-03-10,3200000,서울특별시 관악구,997,https://www.visitbusan.net/uploadImgs/files/cntnts/20191222162111363_thumbL
2023 어린이동화페스티벌,관악문화재단 어린이라운지,2023-08-26,2023-08-26,소방관마술쇼_동화구연_인형극 등 다양한 어린이 전문 프로그램 운영,관악문화재단,관악문화재단,서울특별시 관악구청,02-828-5829,https://lib.gwanak.go.kr/,,서울특별시 관악구 신림로 3길 35,서울특별시 관악구 신림동 209-1,37.46759765,126.9448709,2025-03-10,3200000,서울특별시 관악구,1244,https://www.visitbusan.net/uploadImgs/files/cntnts/20191222162111363_thumbL
2023 관악강감찬축제,낙성대공원+별빛내린천,2023-10-13,2023-10-15,고려 명장 강감찬 장군의 호국정신을 기리고자 개최되는 서울의 대표적인 역사문화축제이자_관악구민이 함께 만들고 즐기는 축제,관악문화재단,서울특별시 관악구청,문화체육관광부+서울특별시,02-828-5763,https://ggcfest.com/,,서울특별시 관악구 낙성대로 77,서울특별시 관악구 봉천동 738-329,37.47197208,126.959371,2025-03-10,3200000,서울특별시 관악구,786,https://www.visitbusan.net/uploadImgs/files/cntnts/20191222162111363_thumbL
관악구 협치과제 다정다감 페스티벌,별빛내린천 S1472 일대,2023-10-20,2023-10-20,장애인+ 비장애인 모두가 함께하는 경계없는 축제,서울특별시 관악구청,관악문화재단,,02-6357-5001,https://gfac.or.kr/,,서울특별시 관악구 관천로 53,서울특별시 관악구 신림동 1472-1,37.48474926,126.9250817,2025-03-10,3200000,서울특별시 관악구,956,https://www.visitbusan.net/uploadImgs/files/cntnts/20191222162111363_thumbL
2023 모두의 축제: 청춘 관악,별빛내린천,2023-11-04,2023-11-04,‘청춘’을 주제 공연_체험_플리마켓 등_문화적 의미의 ‘청춘’을 통해 세대 간의 소통과 화합을 위한 축제,관악문화재단,서울특별시 관악구청+관악문화재단,,02-828-5732,https://gfac.or.kr/,,서울특별시 관악구 관천로 53,서울특별시 관악구 신림동 1472-1,37.48474926,126.9250817,2025-03-10,3200000,서울특별시 관악구,965,https://www.visitbusan.net/uploadImgs/files/cntnts/20191222162111363_thumbL
충주시립택견단 특별기획공연(택견마을 혹부리영감),충주시문화회관,2025-07-23,2025-07-23,어린이 대상 특별공연,충청북도 충주시청,충청북도 충주시청,,043-850-5981,https://www.chungju.go.kr/culture/,,충청북도 충주시 중앙로 128,충청북도 충주시 성내동 215,36.9706185,127.9372217,2025-08-31,4390000,충청북도 충주시,120,https://www.visitbusan.net/uploadImgs/files/cntnts/20191222162111363_thumbL
제18회 중원애플가요제,수안보 물탕공원 특설무대,2025-08-09,2025-08-09,시민대상 가요제,충청북도 충주시청,충청북도 충주시청,,043-850-5963,https://www.chungju.go.kr/culture/,,충청북도 충주시 중앙로 128,충청북도 충주시 성내동 215,36.9706185,127.9372217,2025-08-31,4390000,충청북도 충주시,73,https://www.visitbusan.net/uploadImgs/files/cntnts/20191222162111363_thumbL
충주시립우륵국악단 하반기 토요상설공연 ’국악버스킹 1회차’,풍류문화관,2025-08-30,2025-08-30,국악 공연,충청북도 충주시청,충청북도 충주시청,,043-850-5962,https://www.chungju.go.kr/culture/,,충청북도 충주시 중앙로 128,충청북도 충주시 성내동 215,36.9706185,127.9372217,2025-08-31,4390000,충청북도 충주시,95,https://www.visitbusan.net/uploadImgs/files/cntnts/20191222162111363_thumbL
제1회 중곡2동 긴고랑 왕벚꽃축제,중곡2동 우정대중사우나 일대+중곡2동 긴고랑로 벚꽃구간,2023-04-01,2023-04-01,긴고랑로의 아름다운 ‘왕벚꽃길’을 알리며 주민이 화합하는 마을축제,중곡2동 문화행사위원회,중곡2동 문화행사위원회,서울특별시 광진구,02-450-1033,,,서울특별시 광진구 능동로 346(중곡동),서울특별시 광진구 중곡동 47-33,,,2025-09-03,3040000,서울특별시 광진구,1040,https://www.visitbusan.net/uploadImgs/files/cntnts/20191222162111363_thumbL
제1회 중곡3동 벚꽃축제,중곡3동 중랑천 뚝방길 둔치 체육공원,2023-04-02,2023-04-02,주민이 함께 참여하는 벚꽃축제,중곡3동 문화행사위원회,중곡3동 문화행사위원회,서울특별시 광진구,02-450-1052,,,서울특별시 광진구 동일로76가길 28(중곡동),서울특별시 광진구 중곡동 684,,,2025-09-03,3040000,서울특별시 광진구,1023,https://www.visitbusan.net/uploadImgs/files/cntnts/20191222162111363_thumbL
제5회 명품한강 장미축제,자양3동 현대6차~8차 아파트사이,2023-05-20,2023-05-20,장미를 테마로 한 자양3동 주민이 화합하여 만드는 마을축제,자양3동 문화행사위원회,자양3동문화행사위원회,서울특별시 광진구,02-450-1803,,,서울특별시 광진구 자양번영로3길 66(자양동),서울특별시 광진구 자양동 786,,,2025-09-03,3040000,서울특별시 광진구,745,https://www.visitbusan.net/uploadImgs/files/cntnts/20191222162111363_thumbL
2023 군자 한마당축제,세종대학교 대양AI센터 거울연못,2023-09-01,2023-09-01,주민이 함께 참여하는 한마당 축제,군자동 문화행사위원회,군자동 문화행사위원회,서울특별시 광진구,02-450-1093,,,서울특별시 광진구 능동로 209(군자동),서울특별시 광진구 군자동 98,,,2025-09-03,3040000,서울특별시 광진구,986,https://www.visitbusan.net/uploadImgs/files/cntnts/20191222162111363_thumbL
2023 광진가족영화제,어린이대공원 구의문 잔디광장,2023-09-09,2023-09-09,버스킹공연+ 캐리커처+ 타투스티커+ 영화상영,서울특별시 광진구,서울특별시 광진구,,02-450-7597,,,서울특별시 광진구 능동로 216,서울특별시 광진구 능동 18,,,2025-09-03,3040000,서울특별시 광진구,910,https://www.visitbusan.net/uploadImgs/files/cntnts/20191222162111363_thumbL
제10회 느티마을 한마당 축제,화양동 느티나무 공원 및 구 화양초등학교 운동장,2023-09-23,2023-09-23,느티나무 기원제+ 주민화합한마당+ 화양 힐링 한마당+ 주민자치프로그램 발표 등,화양동 문화행사위원회,화양동 문화행사위원회,서울특별시 광진구,02-450-1845,,,서울특별시 광진구 군자로 9(화양동),서울특별시 광진구 화양동 12-2+서울특별시 광진구 화양동 110-62,,,2025-09-03,3040000,서울특별시 광진구,966,https://www.visitbusan.net/uploadImgs/files/cntnts/20191222162111363_thumbL
광진구민과 함께하는 숲나루 콘서트,광진 숲나루,2023-09-23,2023-09-23,광진윈드오케스트라공연,서울특별시 광진구,서울특별시 광진구,,02-450-7597,,,,서울특별시 광진구 구의동 175-1,,,2025-09-03,3040000,서울특별시 광진구,80,https://www.visitbusan.net/uploadImgs/files/cntnts/20191222162111363_thumbL
2023 광진가족영화제,어린이대공원 구의문 잔디광장,2023-09-24,2023-09-24,버스킹공연+ 캐리커처+ 타투스티커+ 영화상영,서울특별시 광진구,서울특별시 광진구,,02-450-7597,,,서울특별시 광진구 능동로 216,서울특별시 광진구 능동 18,,,2025-09-03,3040000,서울특별시 광진구,721,https://www.visitbusan.net/uploadImgs/files/cntnts/20191222162111363_thumbL
제9회 긴고랑 한마음 축제,긴고랑체육공원,2023-10-05,2023-10-05,자치회관 프로그램 발표+ 주민 노래자랑+ 먹거리장터+ 체험 부스 운영 등,중곡4동 문화행사위원회,중곡4동 문화행사위원회,서울특별시 광진구,02-450-1072,,,서울특별시 광진구 긴고랑로 143 긴고랑어린이공원,서울특별시 광진구 중곡동 68-19,,,2025-09-03,3040000,서울특별시 광진구,842,https://www.visitbusan.net/uploadImgs/files/cntnts/20191222162111363_thumbL
광진구민과 함께하는 심포니 콘서트,나루아트센터 대공연장,2023-10-07,2023-10-07,광진심포니오케스트라공연,서울특별시 광진구,서울특별시 광진구,,02-450-7597,,,서울특별시 광진구 능동로 76,서울특별시 광진구 자양동 227-344,,,2025-09-03,3040000,서울특별시 광진구,968,https://www.visitbusan.net/uploadImgs/files/cntnts/20191222162111363_thumbL
제7회 구삼축제 한마당,구의공원,2023-10-13,2023-10-13,시니어패션쇼+ 자치회관 프로그램 발표+ 주민 노래자랑+ 체험 부스 운영 등,구의3동 문화행사위원회,구의3동 문화행사위원회,서울특별시 광진구,02-450-1242,,,서울특별시 광진구 광나루로56길 86,서울특별시 광진구 구의동 546-2,,,2025-09-03,3040000,서울특별시 광진구,1073,https://www.visitbusan.net/uploadImgs/files/cntnts/20191222162111363_thumbL
제2회 숲나루 꿈의 축제,광진숲나루,2023-10-14,2023-10-14,주민노래자랑+ 초대가수 공연+ 저글링 등 공연,구의2동 문화행사위원회,구의2동 문화행사위원회,서울특별시 광진구,02-450-1222,,,,서울특별시 광진구 구의동 175-1,,,2025-09-03,3040000,서울특별시 광진구,89,https://www.visitbusan.net/uploadImgs/files/cntnts/20191222162111363_thumbL
자양4동 주민 소통한마당 축제,신양중학교 운동장,2023-10-14,2023-10-14,단체게임+ 노래자랑+ 초청공연,자양4동 문화행사위원회,자양4동 문화행사위원회,서울특별시 광진구,02-450-1824,,,서울특별시 광진구 자양강변길 73,서울특별시 광진구 자양동 57-163,,,2025-09-03,3040000,서울특별시 광진구,816,https://www.visitbusan.net/uploadImgs/files/cntnts/20191222162111363_thumbL
주민과 함께하는 제3회 이랴이랴 자신만만 축제,자마장공원,2023-10-21,2023-10-21,초대가수 축하 공연,자양1동 문화행사위원회,자양1동 문화행사위원회,서울특별시 광진구,02-450-1282,,,서울특별시 광진구 자양로13길 41,서울특별시 광진구 자양동 630,,,2025-09-03,3040000,서울특별시 광진구,966,https://www.visitbusan.net/uploadImgs/files/cntnts/20191222162111363_thumbL
제7회 자양뚝방길 가을음악회,광양중학교 강당,2023-10-21,2023-10-21,태권도시범단공연+ 주민노래자랑+ 초대가수 공연,자양2동 문화행사위원회,자양2동 문화행사위원회,서울특별시 광진구,02-450-1602,,,서울특별시 광진구 자양로3길 7,서울특별시 광진구 자양동 674,,,2025-09-03,3040000,서울특별시 광진구,1317,https://www.visitbusan.net/uploadImgs/files/cntnts/20191222162111363_thumbL
2023 행복나눔 구일 마을문화 축제,구의1동 주민센터 대강당,2023-10-26,2023-10-26,동대부여고 동아리(합창+ 댄스) 발표+ 어린이 태권도 시범실버합창단 및 초대가수 공연+ 자치회관 발표,구의1동 문화행사위원회,구의1동 문화행사위원회,서울특별시 광진구,02-450-5142,,,서울특별시 광진구 광나루로36길 56,서울특별시 광진구 구의동 237-6,,,2025-09-03,3040000,서울특별시 광진구,1147,https://www.visitbusan.net/uploadImgs/files/cntnts/20191222162111363_thumbL
2023 제6회 능동 감마을 축제,어린이대공원 서문일대,2023-10-27,2023-10-27,감따기+ 감 껍질 길게 깎기+ 초청가수 공연,능동 문화행사위원회,능동 문화행사위원회,서울특별시 광진구,02-450-1122,,,서울특별시 광진구 능동로 238,서울특별시 광진구 능동 18,,,2025-09-03,3040000,서울특별시 광진구,1019,https://www.visitbusan.net/uploadImgs/files/cntnts/20191222162111363_thumbL
광장동 주민한마당 광나루 해오름축제,광진숲나루,2023-10-28,2023-10-28,어린이공연+ 축하공연(팝페라가수+ K-POP댄스+ 전자현악기),광장동 문화행사위원회,광장동 문화행사위원회,서울특별시 광진구,02-450-1263,,,,서울특별시 광진구 구의동 175-1,,,2025-09-03,3040000,서울특별시 광진구,69,https://www.visitbusan.net/uploadImgs/files/cntnts/20191222162111363_thumbL
2024 아차산 해맞이 축제,아차산 어울림 광장,2024-01-01,2024-01-01,새해덕담+ 타북공연+ 팝페라공연+ 일출감상,서울특별시 광진구,서울특별시 광진구,,02-450-7596,,,서울특별시 광진구 워커힐로 127,서울특별시 광진구 광장동 5-117,,,2025-09-03,3040000,서울특별시 광진구,927,https://www.visitbusan.net/uploadImgs/files/cntnts/20191222162111363_thumbL
제6회 명품한강 장미축제,자양3동 현대6차~8차 아파트사이,2024-05-18,2024-05-18,장미를 테마로 한 자양3동 주민이 화합하여 만드는 마을축제,자양3동 문화행사위원회,자양3동문화행사위원회,서울특별시 광진구,02-450-1803,,,서울특별시 광진구 자양번영로3길 66(자양동),서울특별시 광진구 자양동 786,,,2025-09-03,3040000,서울특별시 광진구,912,https://www.visitbusan.net/uploadImgs/files/cntnts/20191222162111363_thumbL
2024 광진가족페스티벌,어린이대공원 구의문 잔디광장,2024-05-25,2024-05-25,구민의날 기념식+가족백일장 및 그림그리기 대회+가족영화제+공연(청소년합창단+ 마술공연 등)+부대행사(캐리커처+캘리그라피+포토부스 등),서울특별시 광진구,서울특별시 광진구,,02-450-7596,,,서울특별시 광진구 능동로 216,서울특별시 광진구 능동 18,,,2025-09-03,3040000,서울특별시 광진구,866,https://www.visitbusan.net/uploadImgs/files/cntnts/20191222162111363_thumbL
2024 제1회 광진가족 영화제,어린이대공원 구의문 잔디광장,2024-05-25,2024-05-25,버스킹공연+ 캐리커처+ 타투스티커+ 영화상영,서울특별시 광진구,서울특별시 광진구,,02-450-7623,,,서울특별시 광진구 능동로 216,서울특별시 광진구 능동 18,,,2025-09-03,3040000,서울특별시 광진구,945,https://www.visitbusan.net/uploadImgs/files/cntnts/20191222162111363_thumbL
2024 제2회 광진가족 영화제,어린이대공원 구의문 잔디광장,2024-09-07,2024-09-07,버스킹공연+ 캐리커처+ 타투스티커+ 영화상영,서울특별시 광진구,서울특별시 광진구,,02-450-7623,,,서울특별시 광진구 능동로 216,서울특별시 광진구 능동 18,,,2025-09-03,3040000,서울특별시 광진구,914,https://www.visitbusan.net/uploadImgs/files/cntnts/20191222162111363_thumbL
2024 행복광진 힐링축제,중곡역 소공원 일대,2024-09-07,2024-09-07,초대가수 축하 공연+ 지역가수 축하 공연,서울특별시 광진구,서울특별시 광진구,,02-450-7638,,,서울특별시 광진구 능동로 400,서울특별시 광진구 중곡동 30-80,,,2025-09-03,3040000,서울특별시 광진구,827,https://www.visitbusan.net/uploadImgs/files/cntnts/20191222162111363_thumbL
광진가족 클래식 음악산책 지브리 콘서트,건국대 새천년관 대공연장,2024-09-10,2024-09-10,스튜디오 지브리 미야자키 하야오의 애니메이션 OST연주,서울특별시 광진구,서울특별시 광진구,,02-450-7597,,,서울특별시 광진구 능동로 120,서울특별시 광진구 화양동 1,,,2025-09-03,3040000,서울특별시 광진구,1056,https://www.visitbusan.net/uploadImgs/files/cntnts/20191222162111363_thumbL
2024 청춘대로,능동로 분수광장 숲속의 무대 등 능동로 일대,2024-09-26,2024-09-28,청년페스티벌 축하 공연 등 다양한 청년참여 프로그램 운영,서울특별시 광진구,서울특별시 광진구,,02-450-7596,,,서울특별시 광진구 능동로 216,서울특별시 광진구 능동 18,,,2025-09-03,3040000,서울특별시 광진구,1395,https://www.visitbusan.net/uploadImgs/files/cntnts/20191222162111363_thumbL
2024 피크닉인나루,어린이대공원 숲속의무대,2024-10-05,2024-10-05,전세대 공감 친환경 콘서트,서울특별시 광진문화재단,서울특별시 광진문화재단,,02-2049-4700,,,서울특별시 광진구 능동로 216,서울특별시 광진구 능동 18,,,2025-09-03,3040000,서울특별시 광진구,866,https://www.visitbusan.net/uploadImgs/files/cntnts/20191222162111363_thumbL
2024년 제1회 광진생활문화예술축제,어린이대공원 문화의거리  사전행사(9/20 커먼그라운드_공방예술마켓),2024-11-01,2024-11-02,음악공연 및 노래자랑+ 자치회관+문화원+문화예술회관 수강생 발표회 및 전시회+ 공방예술마켓,서울특별시 광진구,서울특별시 광진구,,02-450-7573,,,서울특별시 광진구 능동로 216,서울특별시 광진구 능동 18,,,2025-09-03,3040000,서울특별시 광진구,1082,https://www.visitbusan.net/uploadImgs/files/cntnts/20191222162111363_thumbL
클래식소풍,어린이대공원 구의문 잔디광장,2024-10-19,2024-10-19,야외클래식 오케스트라 공연 및 팝페라 가수 등 협연 공연,서울특별시 광진구,서울특별시 광진구,,02-450-7597,,,서울특별시 광진구 능동로 216,서울특별시 광진구 능동 18,,,2025-09-03,3040000,서울특별시 광진구,965,https://www.visitbusan.net/uploadImgs/files/cntnts/20191222162111363_thumbL
2025 아차산 해맞이 축제,아차산 어울림 광장,2025-01-01,2025-01-01,새해덕담+ 문화공연+ 일출감상,서울특별시 광진구,서울특별시 광진구,,02-450-7596,,,서울특별시 광진구 워커힐로 127,서울특별시 광진구 광장동 5-117,,,2025-09-03,3040000,서울특별시 광진구,638,https://www.visitbusan.net/uploadImgs/files/cntnts/20191222162111363_thumbL
2023 영동포도축제,레인보우힐링관광지,2023-08-24,2023-08-27,포도판매장+포도밟기+공연 등,(재)영동축제관광재단+영동포도연합회,충청북도 영동군,,043-745-8916,,,충청북도 영동군 영동읍 동정로 1,,,,2023-12-07,4440000,충청북도 영동군,4,https://www.visitbusan.net/uploadImgs/files/cntnts/20191222162111363_thumbL
2023 영동곶감축제,영동체육관 일원,2023-01-06,2023-01-08,"곶감판매장터, 체험프로그램 등",(재)영동축제관광재단+영동곶감연합회,충청북도 영동군,,043-745-8916,,,충청북도 영동군 영동읍 동정로 1,,,,2023-12-07,4440000,충청북도 영동군,106,https://www.visitbusan.net/uploadImgs/files/cntnts/20191222162111363_thumbL
도봉서원 춘·추향제,도봉서원,2015-04-28,2015-10-22,"분향례, 전폐례, 초헌례, 아헌례, 종헌례, 음복례 등 제례, 추모음악회",서울특별시 도봉구청,"서울특별시 도봉구청,(사)도봉서원",,02-905-4026,,,서울특별시 도봉구 도봉산길 90,,37.6853826,127.0325089,2018-05-01,3090000,서울특별시 도봉구,1227,https://www.visitbusan.net/uploadImgs/files/cntnts/20191222162111363_thumbL
도봉산 산사축제,도봉산 일대,2015-10-02,2015-10-03,"산사음악회, 영산재, 사찰음식전 등",서울특별시 도봉구청,서울특별시 도봉구청,,02-905-4026,,,서울특별시 도봉구,,37.6864694,127.033968,2018-05-01,3090000,서울특별시 도봉구,1149,https://www.visitbusan.net/uploadImgs/files/cntnts/20191222162111363_thumbL
도봉구민 건강축제,"도봉구청, 중랑천변",2015-10-16,2015-10-17,"도봉구민 걷기대회, 장애체험, 가상음주체험, 유방암검진, 신장초음파 검사, 건강관련 패널전시, 건강강좌 등",서울특별시 도봉구청,서울특별시 도봉구청,,02-2091-4422,,,서울특별시 도봉구 마들로 656,,37.6686287,127.0470496,2018-05-01,3090000,서울특별시 도봉구,718,https://www.visitbusan.net/uploadImgs/files/cntnts/20191222162111363_thumbL
도봉산 산사축제,도봉산 일대,2015-10-02,2015-10-03,"산사음악회, 영산재, 사찰음식전 등",서울특별시 도봉구청,서울특별시 도봉구청,,02-905-4026,,,서울특별시 도봉구,,37.6864694,127.033968,2018-05-01,3090000,서울특별시 도봉구,1019,https://www.visitbusan.net/uploadImgs/files/cntnts/20191222162111363_thumbL
도봉구민 건강축제,"도봉구청, 중랑천변",2015-10-16,2015-10-17,"도봉구민 걷기대회, 장애체험, 가상음주체험, 유방암검진, 신장초음파 검사, 건강관련 패널전시, 건강강좌 등",서울특별시 도봉구청,서울특별시 도봉구청,,02-2091-4422,,,서울특별시 도봉구 마들로 656,,37.6686287,127.0470496,2018-05-01,3090000,서울특별시 도봉구,1304,https://www.visitbusan.net/uploadImgs/files/cntnts/20191222162111363_thumbL
둔내고랭지토마토축제,둔내종합체육공원,2023-08-12,2023-08-14,토마토풀장+향토음식체험 등,둔내고랭지토마토축제위원회,강원특별자치도 횡성군 둔내면행정복지센터,,033-340-2774,,,강원특별자치도 횡성군 둔내면 경강로 4708,강원특별자치도 횡성군 둔내면 둔방내리 58-11,37.516751,128.2137118,2023-08-30,4261000,강원특별자치도 횡성군,70,https://www.visitbusan.net/uploadImgs/files/cntnts/20191222162111363_thumbL
횡성더덕축제,청일면 유동3리 농거리축제장,2023-09-15,2023-09-17,더덕캐기체험+더덕품평회 등,횡성더덕축제위원회,강원특별자치도 횡성군 청일면행정복지센터,,033-340-2832,,,강원특별자치도 횡성군 청일면 유동로 17,강원특별자치도 횡성군 청일면 유동리 850-2,37.58392059,128.1502908,2023-08-30,4261000,강원특별자치도 횡성군,158,https://www.visitbusan.net/uploadImgs/files/cntnts/20191222162111363_thumbL
안흥찐빵축제,안흥찐빵모락모락마을 일원,2023-10-13,2023-10-15,안흥찐빵 시식 및 홍보+농경문화 체험+먹거리장터운영 등,안흥찐빵축제위원회,강원특별자치도 횡성군 안흥면행정복지센터,,033-340-2742,,,강원특별자치도 횡성군 안흥면 주천강로 1868,강원특별자치도 횡성군 안흥면 안흥리 1063,37.40978635,128.1554843,2023-08-30,4261000,강원특별자치도 횡성군,28,https://www.visitbusan.net/uploadImgs/files/cntnts/20191222162111363_thumbL
횡성한우축제,횡성종합운동장,2023-10-06,2023-10-10,한우구이터+횡성한우 발전포럼+횡성빛축제 등,횡성문화관광재단,강원특별자치도 횡성군청,,033-340-5712,http://www.happyhanwoofestival.com/,,강원특별자치도 횡성군 횡성읍 문화체육로 57,강원특별자치도 횡성군 횡성읍 북천리 184,37.49608715,127.9891498,2023-08-30,4261000,강원특별자치도 횡성군,65,https://www.visitbusan.net/uploadImgs/files/cntnts/20191222162111363_thumbL
횡성호수길축제,횡성 망향의동산 일원,2023-05-05,2023-05-07,"호수길 걷기대회, 어린이 그림그리기대회, 스탬프 투어 등",횡성호수길축제위원회,강원특별자치도횡성군공근면행정복지센터,"K-Water 횡성원주권지사, 횡성문화관광재단",033-340-2803,,,강원특별자치도 횡성군 횡성읍 갑천면 구방5길40,강원특별자치도 횡성군 횡성읍 갑천면 구방리 512,37.545992,128.067183,2023-08-30,4261000,강원특별자치도 횡성군,93,https://www.visitbusan.net/uploadImgs/files/cntnts/20191222162111363_thumbL
횡성회다지소리축제,횡성정금민속관 및 회다지소리문화체험관,2023-04-28,2023-04-30,회다지 인형극+원형공개+공연,횡성회다지소리축제위원회,횡성회다지소리전승보존회,횡성군청,033-343-3176,,,강원특별자치도 횡성군 우천면 정포로 37,강원특별자치도 횡성군 우천면 정금리 868-4,37.5038326258,128.1012677582,2023-08-30,4261000,강원특별자치도 횡성군,86,https://www.visitbusan.net/uploadImgs/files/cntnts/20191222162111363_thumbL
영월동강뗏목축제,동강둔치 일원,2023-07-28,2023-07-30,전통뗏목시연+맨손송어잡기+래프팅,영월문화관광재단,강원특별자치도 영월군,강원랜드,033-375-6353,https://www.ywcf.or.kr/,,,강원특별자치도 영월군 영월읍 하송리 61-11,37.17968547,128.4698463,2025-06-25,4271000,강원특별자치도 영월군,113,https://www.visitbusan.net/uploadImgs/files/cntnts/20191222162111363_thumbL
동강국제사진제,동강사진박물관,2023-07-21,2023-09-24,동강사진상+워크숍+사진예술전시,영월문화관광재단,강원특별자치도 영월군,강원특별자치도,033-375-6353,https://www.ywcf.or.kr/,,강원특별자치도 영월군 영월읍 영월로 1909-10,강원특별자치도 영월군 영월읍 하송리 217-2,37.18193994,128.4615511,2025-06-25,4271000,강원특별자치도 영월군,5,https://www.visitbusan.net/uploadImgs/files/cntnts/20191222162111363_thumbL
단종문화제,장릉 및 영월읍 일원,2023-04-28,2023-04-30,조신시대국장재현+정순왕후선발대회+야간칡줄다리기,영월문화관광재단,강원특별자치도 영월군,문화체육관광부+강원특별자치도+강원랜드,033-375-6353,https://www.ywcf.or.kr/,,강원특별자치도 영월군 영월읍 단종로 24,강원특별자치도 영월군 영월읍 영흥리 961-2,37.18609549,128.4681825,2025-06-25,4271000,강원특별자치도 영월군,169,https://www.visitbusan.net/uploadImgs/files/cntnts/20191222162111363_thumbL
팔공산 단풍축제,팔공산 동화지구 분수대광장,2025-10-23,2025-10-27,순두부 나눔 행사 및 무대공연 등,팔공산동화지구번영회,팔공산동화지구번영회,대구광역시청+대구광역시 동구청,053-981-6624,,,,대구광역시 동구 용수동 27-5,35.9897266,128.6964879,2025-07-14,3420000,대구광역시 동구,140,https://www.visitbusan.net/uploadImgs/files/cntnts/20191222162111363_thumbL
동구 봄축제,동촌유원지 해맞이다리 일원,2025-03-28,2025-03-29,"벚꽃콘서트, 버스킹, 각종 체험 및 부대행사 등",대구광역시동구,대구광역시동구,,053-662-4072,,,대구광역시 동구 아양로 200,,35.8856865,128.6348918,2025-07-14,3420000,대구광역시 동구,817,https://www.visitbusan.net/uploadImgs/files/cntnts/20191222162111363_thumbL
동구 여름축제,동촌유원지 해맞이다리 옆 동촌든치 공영주차장 일원,2025-07-26,2025-07-26,"물놀이행사, 댄스 경연대회, 워터밤 콘서트 등",대구광역시동구,대구광역시동구,,053-662-4072,,,대구광역시 동구 아양로 200,,35.8856865,128.6348918,2025-07-14,3420000,대구광역시 동구,1049,https://www.visitbusan.net/uploadImgs/files/cntnts/20191222162111363_thumbL
동구 어울림한마당 축제,율하체육공원,2025-10-17,2025-10-18,"가요경연대회, i팝업놀이터, 평생학습 어울마당, 콘서트 등",대구광역시동구,대구광역시동구,,053-662-4072,,,대구광역시 동구 아양로 200,,35.8856865,128.6348918,2025-07-14,3420000,대구광역시 동구,1010,https://www.visitbusan.net/uploadImgs/files/cntnts/20191222162111363_thumbL
영주 한국선비문화축제,영주시 선비촌+문정둔치,2025-05-03,2025-05-05,공연+전시+거리퍼레이드,영주문화관광재단,경상북도 영주시청,경상북도,,,,경상북도 영주시 순흥면 소백로 2796,,,,2025-07-07,5090000,경상북도 영주시,93,https://www.visitbusan.net/uploadImgs/files/cntnts/20191222162111363_thumbL
의왕어린이철도축제,"왕송호수공원, 철도박물관 등",2025-05-03,2025-05-03,공연+전시+각종 체험프로그램 운영,경기도 의왕시청,경기도 의왕시청,,031-345-2548,https://www.uiwang.go.kr,,경기도 의왕시 왕송못동로 307,,37.30710763,126.9531458,2025-08-11,4030000,경기도 의왕시,49,https://www.visitbusan.net/uploadImgs/files/cntnts/20191222162111363_thumbL
의왕백운호수축제,백운호수공원 잔디광장,2025-09-27,2025-09-28,공연+개폐막식+시민참여 열린무대,경기도 의왕시청,경기도 의왕시청,,031-345-2548,https://www.uiwang.go.kr,,경기도 의왕시 학현로 199-8,,37.383079,127.008573,2025-08-11,4030000,경기도 의왕시,91,https://www.visitbusan.net/uploadImgs/files/cntnts/20191222162111363_thumbL
의왕왕송호수 겨울축제(날짜미정),왕송호수공원,2025-12-26,2026-01-18,눈썰매+겨울 체험 프로그램,경기도 의왕시청,경기도 의왕시청,,031-345-2548,https://www.uiwang.go.kr,,경기도 의왕시 왕송못동로 307,,37.30710763,126.9531458,2025-08-11,4030000,경기도 의왕시,104,https://www.visitbusan.net/uploadImgs/files/cntnts/20191222162111363_thumbL
2025 섬 홍매화축제,1004섬 튤립·홍매화정원,2025-03-07,2025-03-09,개막식+전시공연+체험프로그램+특별기획전등,축제추진위원회,전라남도 신안군청,,061-240-4048,https://tour.shinan.go.kr/,,전라남도 신안군 임자면 대광해수욕장길 179,,,,2025-08-08,5010000,전라남도 신안군,70,https://www.visitbusan.net/uploadImgs/files/cntnts/20191222162111363_thumbL
2025년 섬 수선화축제,선도 수선화정원,2025-04-04,2025-04-13,개막식+전시공연+체험프로그램+특별기획전등,축제추진위원회,전라남도 신안군청,,061-240-5410,https://tour.shinan.go.kr/,,전라남도 신안군 지도읍 선도길 72-26,,,,2025-08-08,5010000,전라남도 신안군,182,https://www.visitbusan.net/uploadImgs/files/cntnts/20191222162111363_thumbL
2025 섬 튤립축제,1004섬 튤립·홍매화정원,2025-04-04,2025-04-13,개막식+전시공연+체험프로그램+특별기획전등,축제추진위원회,전라남도 신안군청,,061-240-4048,https://tour.shinan.go.kr/,,전라남도 신안군 임자면 대광해수욕장길 179,,,,2025-08-08,5010000,전라남도 신안군,88,https://www.visitbusan.net/uploadImgs/files/cntnts/20191222162111363_thumbL
2025년 팔금 섬 유채꽃축제,팔금 장목주차장 일원,2025-04-16,2025-04-25,개막식+전시공연+체험프로그램+특별기획전등,축제추진위원회,전라남도 신안군청,,061-240-3948,https://tour.shinan.go.kr/,,,전라남도 신안군 팔금면 원산리 112-1,,,2025-08-08,5010000,전라남도 신안군,205,https://www.visitbusan.net/uploadImgs/files/cntnts/20191222162111363_thumbL
도봉 과학축전,"도봉구청 로비, 아뜨리움, 대강당, 광장 등",2015-10-23,2015-10-28,과학 체험· 전시·교육·이벤트 마당 등,서울특별시 도봉구청,서울특별시 도봉구청,,02-2091-2316,http://science.dobong.go.kr,,서울특별시 도봉구 마들로 656,,37.6686287,127.0470496,2018-05-01,3090000,서울특별시 도봉구,1154,https://www.visitbusan.net/uploadImgs/files/cntnts/20191222162111363_thumbL
도봉구 등축제,우이천,2015-09-11,2015-09-30,"둘리와 친구들과 어우러지는 범선, 동물친구들 등과 추석을 앞두고 있어 전통춤 시리즈로 구성하여 등 전시",서울특별시 도봉구청,서울특별시 도봉구청,,02-2091-2254,,,서울특별시 도봉구,,37.6617028,127.0382005,2018-05-01,3090000,서울특별시 도봉구,1064,https://www.visitbusan.net/uploadImgs/files/cntnts/20191222162111363_thumbL
2025 서귀포 원도심 문화 페스티벌,이중섭 차 없는 거리,2025-09-01,2025-09-07,지역 문화예술단체와 청소년 동아리 상설 공연을 통해 예술적 재능을 마음껏 펼칠 수 있는 기회를 제공하고 원도심 방문 시민과 관광객들에게 다채로운 볼거리를 제공한다.,제주특별자치도 서귀포시,제주특별자치도 서귀포시,,064-760-2572,https://www.seogwipo.go.kr/,,제주특별자치도 서귀포시 이중섭로 11,,33.2470808,126.5644589,2025-09-15,6500000,제주특별자치도,100,https://www.visitbusan.net/uploadImgs/files/cntnts/20191222162111363_thumbL
제17회 범도민 안전체험 한마당,제주시민복지타운광장,2025-09-26,2025-09-27,도내 최대의 안전문화 축제 제17회 범도민 안전체험 한마당이 9월 26일부터 27일까지 제주시민복지타운에서 개최됩니다.,제주특별자치도교육청,제주특별자치도,,064-710-3533,,,제주특별자치도 제주시 연삼로 286,,33.4918468,126.5238514,2025-09-15,6500000,제주특별자치도,130,https://www.visitbusan.net/uploadImgs/files/cntnts/20191222162111363_thumbL
제 8회 하하페스티벌,산지천 복수구 광장 일원,2025-09-27,2025-09-27,음악으로 모이고 소비로 나누는 지역상생축제,제주특별자치도 제주시 일도1동 주민센터,제주특별자치도 제주시 일도1동 주민센터,,064-728-4427,,,제주특별자치도 제주시 칠성로길 48,,33.5141372,126.5277779,2025-09-15,6500000,제주특별자치도,104,https://www.visitbusan.net/uploadImgs/files/cntnts/20191222162111363_thumbL
무브먼트 코리아 인 서귀포,칠십리 야외공연장,2025-09-20,2025-09-20,광개토제주예술단&B-BOY MB.CREW 무브먼트 코리아 인 서귀포,서귀포예술의전당,서귀포예술의전당,,064-760-3368,https://culture.seogwipo.go.kr/artcenter/index.htm,,제주특별자치도 서귀포시 남성중로 6-1,,33.2430773,126.5601406,2025-09-15,6500000,제주특별자치도,142,https://www.visitbusan.net/uploadImgs/files/cntnts/20191222162111363_thumbL
2025 두 발과 두 바퀴로 더 푸른 제주,<1일차> 애향운동장 및 연삼로 일대  <2일차> 구좌 해안도로 일원,2025-09-27,2025-09-28,제주특별자치도와 제주관광공사가 함께 준비한 2025 차 없는 거리 자전거 & 걷기 행사,제주관광공사,제주특별자치도,,064-740-6053,,,제주특별자치도 제주시 선덕로 23,,33.4862394,126.4992442,2025-09-15,6500000,제주특별자치도,100,https://www.visitbusan.net/uploadImgs/files/cntnts/20191222162111363_thumbL
제 21회 쇠소깍축제,하효항과 쇠소깍 일대,2025-09-20,2025-09-21,천혜의 자연경관을 지닌 쇠소깍 일대에서 펼쳐지는 지역주민. 관광객 화합의 장,효돈동연합청년회,효돈동연합청년회,,064-760-4623,,,제주특별자치도 서귀포시 쇠소깍로 151-1,,33.2505064,126.6215119,2025-09-15,6500000,제주특별자치도,73,https://www.visitbusan.net/uploadImgs/files/cntnts/20191222162111363_thumbL
2025 서귀포 크루즈 페스타,강정항 인근,2025-08-30,2025-11-03,"K-pop 커버 공연과 해녀 공연부터 제주의 특색이 담긴 플리마켓, 한국 전통 소품 만들기 체험,  K-드라마 속 주인공이 되어보는 한류 포토존까지 제주의 매력을 오감으로 체험할 수 있는 특별한 기회를 선사합니다.",제주특별자치도 서귀포시,제주특별자치도 서귀포시,,064-760-3973,,,제주특별자치도 서귀포시 말질로 281,,33.2279821,126.475312,2025-09-15,6500000,제주특별자치도,-23,https://www.visitbusan.net/uploadImgs/files/cntnts/20191222162111363_thumbL
펠롱펠롱 빛 모드락,제주 목관아,2025-09-26,2025-10-19,‘탐라순력도’를 중심으로제주의 국가유산을 향유하고자 미디어아트로 재해석한 국가야간전시로 도민과 제주를 방문한 국민이 함께 즐길 수 있는 이색적인 야간 행사입니다.,제주특별자치도,국가유산진흥원,,064-702-3302,www.jejumediaart.kr,,제주특별자치도 제주시 관덕로 25,,33.5140021,126.5218052,2025-09-15,6500000,제주특별자치도,151,https://www.visitbusan.net/uploadImgs/files/cntnts/20191222162111363_thumbL
제 31회 서귀포칠십리축제,제주 천지연폭포 일원,2025-10-17,2025-10-19,서귀포 칠십리축제는 서귀포의 아름다운 자연과 어우러진 여유로움 속에서 색다른 문화를 체험하고 다양한 사람들이 함께 어울리는 축제입니다.,서귀포칠십리축제 추진위원회,제주특별자치도 서귀포시,,064-760-3942,https://70festival.com,,제주특별자치도 서귀포시 남성중로 2-9,,33.2438358,126.5598383,2025-09-15,6500000,제주특별자치도,131,https://www.visitbusan.net/uploadImgs/files/cntnts/20191222162111363_thumbL
제 64회 탐라문화제,탑동해변공연장 일대,2025-10-10,2025-10-14,"1962년 제1회 제주예술제로 시작하여 1965년 한라문화제, 2002년 탐라문화제로 명칭을 변경하여 제주의 역사. 문화예술을 테마로 삼아 제주의 정체성 확립 및 제주 고유의 민속예술을 핵심 프로그램으로 육성하여 관광객과 도민이 함께 연출하는 전통문화 축제로 2024~2025년 문화관광축제 예비축제로 선정됨.",(사)한국예총제주특별자치도연합회,제주특별자치도,,064-753-3287,http://www.jejuart.or.kr/,,제주특별자치도 제주시 중앙로 2,,33.5179236,126.5242565,2025-09-15,6500000,제주특별자치도,114,https://www.visitbusan.net/uploadImgs/files/cntnts/20191222162111363_thumbL
2025 영천동해바라기축제,영천동주민센터 주변,2025-10-02,2025-10-04,"제주의 청명한 가을 하늘 아래, 해바라기와 사람. 음악과 맛이 함께 어우러지는 이 축제는 계절의 아름다움과 따뜻한 환대를 동시에 경험할 수 있는 자리이다.",영천동해바라기축제위원회,영천동주민센터,,064-760-0516,,,제주특별자치도 서귀포시 솔오름로105번길 24,,33.2859808,126.5637555,2025-09-15,6500000,제주특별자치도,105,https://www.visitbusan.net/uploadImgs/files/cntnts/20191222162111363_thumbL
2025 제주올레걷기축제,올레 17.18코스,2025-11-06,2025-11-08,혼자 걸어도 좋지만 함께 걸으면 두 배 더 행복한 제주 대표 가을 축제,사단법인 제주올레,제주특별자치도,,064-762-2190,,,제주특별자치도 제주시 애월읍 광성로 94,,33.4580508,126.4180882,2025-09-15,6500000,제주특별자치도,98,https://www.visitbusan.net/uploadImgs/files/cntnts/20191222162111363_thumbL
외국인 K-트롯 가요제,신정호야외음악당,2025-10-18,2025-10-18,K트롯 가요제 및 지구한바퀴 행사 연계 개최,한국연예예술인총연합회 아산지회,충청남도 아산시,충청남도 아산시,041-530-6672,,,충청남도 아산시 신정로 616,충청남도 아산시 방축동 5,36.77152141,126.9839152,2025-09-01,4520000,충청남도 아산시,120,https://www.visitbusan.net/uploadImgs/files/cntnts/20191222162111363_thumbL
제6회 아산시 달그락페스티벌,신정호야외음악당,2025-08-29,2025-08-30,"락공연, 푸드존 운영 등",온양문화원,충청남도 아산시,충청남도 아산시,041-540-2922,,,충청남도 아산시 무궁화로 111,충청남도 아산시 초사동407,36.74527663,126.9890582,2025-09-01,4520000,충청남도 아산시,112,https://www.visitbusan.net/uploadImgs/files/cntnts/20191222162111363_thumbL
아트밸리 아산 별빛음악제,신정호야외음악당,2025-09-06,2025-09-07,"영화상영, 지역예술인 공연 등",(재)아산문화재단,충청남도 아산시,충청남도 아산시,041-540-2922,,,충청남도 아산시 무궁화로 111,충청남도 아산시 초사동407,36.74527663,126.9890582,2025-09-01,4520000,충청남도 아산시,80,https://www.visitbusan.net/uploadImgs/files/cntnts/20191222162111363_thumbL
설화예술제,곡교천 은행나무길 일원,2025-10-10,2025-10-12,개폐막식 지역예술인창작발표 공연 및 전시,(사)한국예총 아산지회,충청남도 아산시,,041-545-8737,,,충청남도 아산시 은행나무길 293,충청남도 아산시 염치읍 송곡리 72-13,36.80044534,127.0188975,2025-09-01,4520000,충청남도 아산시,18,https://www.visitbusan.net/uploadImgs/files/cntnts/20191222162111363_thumbL
아산 제3회 국제민족무용축제,신정호 야외음악당,2025-09-13,2025-09-14,국내외 유수의 무용단이 참여하는 국제민족무용축제 개최,아산시무용단,충청남도+충청남도 아산시,충청남도+충청남도 아산시,041-540-2068,,,충청남도 아산시 신정로 616,충청남도 아산시 방축동 5,36.77152141,126.9839152,2025-09-01,4520000,충청남도 아산시,78,https://www.visitbusan.net/uploadImgs/files/cntnts/20191222162111363_thumbL
2025 충남 아산 슈퍼 e페스타,이순신체육관,2025-09-27,2025-09-28,"2025 충남 아산 이스포츠(FC 온라인, FC 모바일) 대회 및 부대행사",(재)충남콘텐츠진흥원,충청남도 아산시,충청남도,041-540-2546,,,충청남도 아산시 남부로 370-42,충청남도 아산시 풍기동 114-3,36.76940242,127.0246168,2025-09-01,4520000,충청남도 아산시,90,https://www.visitbusan.net/uploadImgs/files/cntnts/20191222162111363_thumbL
2025 충남 아산 발로란트 인비테이셔널 대회,호서대학교 교육문화관,2025-11-08,2025-11-09,2025 발로란트 프로리그 초청 경기 및 부대행사,(재)충남콘텐츠진흥원,충청남도+충청남도 아산시,,041-540-2546,,,충청남도 아산시 배방읍 호서로79번길 20,충청남도 아산시 배방읍 세출리 165,36.73846415,127.0764765,2025-09-01,4520000,충청남도 아산시,105,https://www.visitbusan.net/uploadImgs/files/cntnts/20191222162111363_thumbL
지중해 문화 축제,탕정면 지중해마을,2025-11-01,2025-11-01,지중해마을만의 특색과 문화를 담은 주민주도형 축제,충청남도 아산시,충청남도 아산시,,041-530-6672,,,충청남도 아산시 탕정면 탕정면로8번길 55-7,충청남도 아산시 탕정면 명암리 949-1,36.7969505,127.0616438,2025-09-01,4520000,충청남도 아산시,57,https://www.visitbusan.net/uploadImgs/files/cntnts/20191222162111363_thumbL
제66회 밀양아리랑대축제,영남루 및 밀양강변일원,2024-05-23,2024-05-26,불꽃놀이+체험+공연,밀양문화관광재단,경상남도 밀양시,문화체육관광부+경상남도+밀양시의회+KBS창원방송총국+밀양문화원+한국예술문화단체총연합회 밀양지회,055-359-4523,https://www.arirang.or.kr/,,,경상남도 밀양시 삼문동 248-6,,,2024-12-12,5360000,경상남도 밀양시,108,https://www.visitbusan.net/uploadImgs/files/cntnts/20191222162111363_thumbL
제24회 밀양공연예술축제,밀양아리나,2024-07-19,2024-07-28,연극축제,(재)밀양문화재단+밀양공연예술축제추진위원회,경상남도+경상남도 밀양시,밀양시의회+한국문화예술위원회+한국문화예술회관연합회+한국연극협회+경남연극협회+서울연극협회+한국연출가협회+연극배우협회+한국극작가협회+한국연극평론가협회,055-359-4552,www.theatervillage.co.kr,,경상남도 밀양시 부북면 창밀로 3097-16,,35.53347627,128.7046157,2024-12-12,5360000,경상남도 밀양시,182,https://www.visitbusan.net/uploadImgs/files/cntnts/20191222162111363_thumbL
2024년 밀양 문화유산 야행,영남루 및 밀양강 일원,2024-04-19,2024-04-21,전시+공연+체험,밀양시문화도시센터,경상남도 밀양시,국가유산청,,,,,경상남도 밀양시 삼문동 248-6,,,2024-12-12,5360000,경상남도 밀양시,134,https://www.visitbusan.net/uploadImgs/files/cntnts/20191222162111363_thumbL
제15회 밀양대추축제,단장면 체육공원 일원,2024-10-20,2024-10-22,전시+가요제,밀양대추축제 추진위원회,밀양대추축제 추진위원회,경상남도 밀양시+동밀양농협+밀양시산림조합,,,,경상남도 밀양시 단장면 표충로 868,,,,2024-12-12,5360000,경상남도 밀양시,97,https://www.visitbusan.net/uploadImgs/files/cntnts/20191222162111363_thumbL
제26회 밀양얼음골사과축제,얼음골공영주차장,2024-11-02,2024-11-03,판매+으뜸사과선발+공연,밀양얼음골사과발전협의회,밀양얼음골사과발전협의회,경상남도+경상남도 밀양시+밀양농협,055-356-6458,,,,경상남도 밀양시 산내면 삼양리 190-1,,,2024-12-12,5360000,경상남도 밀양시,111,https://www.visitbusan.net/uploadImgs/files/cntnts/20191222162111363_thumbL
제14회 밀양삼랑진 딸기시배지 축제,삼랑진읍 일원,2024-03-22,2024-03-24,시음+판매+공연+체험+이벤트,삼랑진딸기시배지발전협의회,삼랑진딸기시배지발전협의회,경상남도 밀양시+밀양시의회+삼랑진농협+한국수력원자력㈜삼랑진양수발전소,,,,경상남도 밀양시 삼랑진읍 천태로 373-21,,,,2024-12-12,5360000,경상남도 밀양시,115,https://www.visitbusan.net/uploadImgs/files/cntnts/20191222162111363_thumbL
초동연가길 코스모스축제,초동연가길 일원,2024-10-05,2024-10-06,걷기대회+공연+행사,초동면행정복지센터,초동청년회,,,,,,경상남도 밀양시 초동면 반월리 167,,,2024-12-12,5360000,경상남도 밀양시,-8,https://www.visitbusan.net/uploadImgs/files/cntnts/20191222162111363_thumbL
추령장승축제,추령장승촌,2025-10-25,2025-10-26,장승제+문화예술공연 등,순창추령장승제전위원회,전북특별자치도 순창군,,063-650-5831,,,전북특별자치도 순창군 복흥면 추령로 1159,전북특별자치도 순창군 복흥면 정산리 326-4,35.43240472,126.929702,2025-06-17,4771000,전북특별자치도 순창군,55,https://www.visitbusan.net/uploadImgs/files/cntnts/20191222162111363_thumbL
파주장단콩축제추진위원회,임진각광장,2025-11-21,2025-11-23,파주장단콩 전시 및 판매+농특산물 홍보 및 판매+각종 공연 및 체험행사 등,파주장단콩축제추진위원회,경기도 파주시청,,031-940-5281,https://tour.paju.go.kr,,경기도 파주시 문산읍 임진각로 177,경기도 파주시 문산읍 마정리 1325-1,37.8895361989,126.7401867774,2025-09-16,4060000,경기도 파주시,46,https://www.visitbusan.net/uploadImgs/files/cntnts/20191222162111363_thumbL
제17회 DMZ 국제다큐멘터리 영화제,임진각 평화누리 야외공연장,2025-09-11,2025-09-17,다큐멘터리 상영 및 시상+포럼+다큐강연 등,사단법인 DMZ국제다큐멘터리영화제,사단법인 DMZ국제다큐멘터리영화제,경기도+경기도 파주시청+문화체육관광부+영화진흥위원회,031-940-4723,https://dmzdocs.com,,경기도 파주시 문산읍 임진각로 177,경기도 파주시 문산읍 사목리 494-1,37.8895361989,126.7401867774,2025-09-16,4060000,경기도 파주시,99,https://www.visitbusan.net/uploadImgs/files/cntnts/20191222162111363_thumbL
2025 헤이리 판 페스티벌,헤이리예술마을 일대,2025-09-19,2025-09-21,공연+전시+체험프로그램+직거래장터 등,헤이리 문화예술위원회,경기도 파주시청+(사)헤이리,,031-940-4722,https://tour.paju.go.kr,,경기도 파주시 탄현면 헤이리마을길 70-21,경기도 파주시 탄현면 법흥리 1652-239,37.7880049977,126.699308966,2025-09-16,4060000,경기도 파주시,42,https://www.visitbusan.net/uploadImgs/files/cntnts/20191222162111363_thumbL
파주포크페스티벌,전야제)문산행복센터+본행사)임진각 평화누리공원,2025-09-19,2025-09-20,포크음악중심 공연,(재)파주문화재단,경기도 파주시청,,,,,경기도 파주시 시민회관길 33,경기도 파주시 금촌동 927,37.7592016315,126.7807224813,2025-09-16,4060000,경기도 파주시,108,https://www.visitbusan.net/uploadImgs/files/cntnts/20191222162111363_thumbL
제21회 경기북부음악예술제,운정호수공원 일원,2025-09-27,2025-09-27,체험부스운영+문화예술공연,파주시불교사암연합회,경기북부불교사암연합회,,,,,경기도 파주시 광탄면 보광로474번길 87,경기도 파주시 광탄면 영장리 13,37.7539814619,126.9211842329,2025-09-16,4060000,경기도 파주시,89,https://www.visitbusan.net/uploadImgs/files/cntnts/20191222162111363_thumbL
제35회 율곡문화제,파주이이유적지,2025-10-11,2025-10-12,추향제+방방례+유가행렬 등,경기도 파주시청,경기도 파주시청,,,,,경기도 파주시 시청로 50,경기도 파주시 아동동 215-1,37.7592776144,126.7798816508,2025-09-16,4060000,경기도 파주시,104,https://www.visitbusan.net/uploadImgs/files/cntnts/20191222162111363_thumbL
제2회 파주페어_북앤컬처,아시아출판문화정보센터 등 출판도시 일원,2025-10-24,2025-10-26,뮤지컬+연극+프린지공연+낭독공연+버스킹+동네책방+오픈하우스+전시 등,(재)출판도시문화재단,경기도 파주시청,,031-940-4721,https://pajufair.com,,경기도 파주시 회동길 145,경기도 파주시 문발동 524-3,37.7084961154,126.6867783259,2025-09-16,4060000,경기도 파주시,181,https://www.visitbusan.net/uploadImgs/files/cntnts/20191222162111363_thumbL
제28회 오리문화제,광명시민체육관 등,2019-05-31,2019-06-01,오리이원익 영우참배+토크콘서트+전시+체험마당+재현행사 등,광명문화원,광명시청,광명시의회,02-2618-5800,www.gmcc.or.kr/,광명문화원,경기도 광명시 철망산로 42,경기도 광명시 하안동 718-18,37.4674687,126.8732102,2022-09-29,3900000,경기도 광명시,86,https://www.visitbusan.net/uploadImgs/files/cntnts/20191222162111363_thumbL
제29회 오리문화제,광명극장 등,2021-10-09,2021-10-10,오리이원익 영우참배+헌화식+오리이원익 청렴 토크콘서트 및 퀴즈대회+메타버스축제장에서 만남 오리 이원익 등,광명문화원,광명시청,광명시의회,02-2618-5800,www.gmcc.or.kr/,광명문화원,경기도 광명시 철망산로 42,경기도 광명시 하안동 718-18,37.4674687,126.8732102,2022-09-29,3900000,경기도 광명시,104,https://www.visitbusan.net/uploadImgs/files/cntnts/20191222162111363_thumbL
농악대축제,광명문화원 공연장,2021-10-13,2021-10-13,전국학생농악경연대회(비대면)+개최공연 등,농악보존회,광명시청,광명시의회,02-899-1664,http://gmnongak.enterweb.co.kr/,농악대축제,경기도 광명시 철망산로 42,경기도 광명시 하안동 718-18,37.4674687,126.8732102,2022-09-29,3900000,경기도 광명시,124,https://www.visitbusan.net/uploadImgs/files/cntnts/20191222162111363_thumbL
대한민국 국향대전,함평엑스포공원,2025-10-24,2025-11-09,마법의 국향랜드,전라남도 함평군+함평축제관광재단,전라남도 함평군+함평축제관광재단,전라남도+한국관광공사+농림축산식품부+농촌진흥청+대한민국국화동호회,061-320-2239,https://www.hpftf.or.kr/,"가을과 겨울 정취를 만끽할 수 있는 경관연출과 대형트리, 종소리 게이트, 마법의성 및 9층탑 등 대형 국화 기획 작품과 매년 다양한 국화분재 작품이 전시되어 환상적인 분위기를 연출",전라남도 함평군 함평읍 곤재로 27,전라남도 함평군 함평읍 수호리 1153-1,35.05813923,126.5226056,2025-08-26,4960000,전라남도 함평군,121,https://www.visitbusan.net/uploadImgs/files/cntnts/20191222162111363_thumbL
겨울빛축제,함평엑스포공원,2025-11-26,2026-01-01,미정,전라남도 함평군+함평축제관광재단,전라남도 함평군+함평축제관광재단,전라남도+한국관광공사+농림축산식품부+농촌진흥청+대한민국국화동호회,061-320-2239,https://www.hpftf.or.kr/,"함평의 밤, 빛의향연",,전라남도 함평군 함평읍 수호리 1153-1,35.05813923,126.5226056,2025-08-26,4960000,전라남도 함평군,12,https://www.visitbusan.net/uploadImgs/files/cntnts/20191222162111363_thumbL
울산고래축제,고래문화특구,2025-09-25,2025-09-28,고래테마 체험+공연+행사 등,울산광역시 남구청,고래문화재단,,052-226-1992,http://www.ulsanwhale.com/index.jsp,고래퍼레이드+수상 퍼포먼스+댕댕이 동문회+뮤지컬+다양한 공연+부대행사 등,울산광역시 남구 장생포고래로 244,울산광역시 남구 매암동 139-29,35.50274228,129.3807929,2025-08-26,3700000,울산광역시 남구,858,https://www.visitbusan.net/uploadImgs/files/cntnts/20191222162111363_thumbL
궁거랑 벚꽃 한마당 개최,무거생태하원 일원,2025-03-28,2025-03-29,축하공연+구립교향악단+청소년공연+예술단공연+포토존+벚꽃조명+벚꽃터널+먹거리장터+푸드트럭,울산제일일보,울산제일일보,울산광역시 남구청,,,,"울산광역시 남구 삼호로23번길 12-1 13, 무거생태하천 일원","울산광역시 남구 무거동 1431-2, 무거생태하천 일원",35.55078474,129.2668778,2025-08-26,3700000,울산광역시 남구,443,https://www.visitbusan.net/uploadImgs/files/cntnts/20191222162111363_thumbL
동래읍성역사축제,동래문화회관+읍성광장+온천장 일원,2025-10-24,2025-10-26,동래부사행차길놀이+동래성저전투재현 뮤지컬+동래세가닥줄다리기+동래장터 체험 등,동래문화원+동래읍성역사축제추진위원회,부산광역시 동래구청,부산광역시청+한국관광공사+부산관광공사 등,051-550-4092,https://www.dongnae.go.kr/festival/index.dongnae?contentsSid=169,,부산광역시 동래구 문화로 80(명륜동),부산광역시 동래구 명륜동 137,35.21195069,129.090546,2025-08-26,3300000,부산광역시 동래구,995,https://www.visitbusan.net/uploadImgs/files/cntnts/20191222162111363_thumbL
군위 삼장군단오축제,효령면 고지바위권역다목적센터 일원,2025-05-31,2025-05-31,삼장군 단오축제,군위문화원,군위문화원,대구광역시청+대구광역시 군위군청,054-380-6866,,,대구광역시 군위군 효령면 장군당 1길 24-6,대구광역시 군위군 효령면 장군리 116-3,36.12359056,128.5747208,2025-08-26,5141000,대구광역시 군위군,786,https://www.visitbusan.net/uploadImgs/files/cntnts/20191222162111363_thumbL
운정호수공원 불꽃축제,운정호수공원 일원,2025-11-01,2025-11-01,공연+체험프로그램+불꽃축제,(재)파주문화재단,경기도 파주시청,,,,,경기도 파주시 시민회관길 33,경기도 파주시 금촌동 927,37.7592016315,126.7807224813,2025-09-16,4060000,경기도 파주시,175,https://www.visitbusan.net/uploadImgs/files/cntnts/20191222162111363_thumbL
2025 화순 봄꽃 축제,남산공원 및 꽃강길 일원,2025-04-18,2025-04-27,공연+전시+체험+먹거리부스 운영 등,전라남도 화순군,전라남도 화순군,,061-379-3575,https://www.hwasun.go.kr/festival/,,전라남도 화순군 화순읍 동헌길 23,전라남도 화순군 화순읍 훈리 35,35.06454,126.9861688,2025-09-15,4900000,전라남도 화순군,113,https://www.visitbusan.net/uploadImgs/files/cntnts/20191222162111363_thumbL
영월동강뗏목축제,동강둔치 일원,2025-08-01,2025-08-03,전통뗏목시연+워터파크+카누체험+물놀이시설,영월문화관광재단,영월문화관광재단,강원특별자치도 영월군+강원랜드,033-375-6353,https://www.ywcf.or.kr/,,,강원특별자치도 영월군 영월읍 하송리 61-11,37.17968547,128.4698463,2025-06-25,4271000,강원특별자치도 영월군,112,https://www.visitbusan.net/uploadImgs/files/cntnts/20191222162111363_thumbL
동강국제사진제,동강사진박물관,2025-07-11,2025-09-28,국제주제전+국제공모전+동강사진상수상자전+거리설치전,영월문화관광재단,영월문화관광재단,강원특별자치도 영월군,033-375-6353,https://www.ywcf.or.kr/,,강원특별자치도 영월군 영월읍 영월로 1909-10,강원특별자치도 영월군 영월읍 하송리 217-2,37.18193994,128.4615511,2025-06-25,4271000,강원특별자치도 영월군,191,https://www.visitbusan.net/uploadImgs/files/cntnts/20191222162111363_thumbL
단종문화제,장릉 및 영월읍 일원,2025-04-25,2025-04-27,단종제향+단종국장재현+칡줄다리기+정순왕후선발대회,영월문화관광재단,영월문화관광재단,강원특별자치도 영월군+강원랜드,033-375-6353,https://www.ywcf.or.kr/,,강원특별자치도 영월군 영월읍 단종로 24,강원특별자치도 영월군 영월읍 영흥리 961-2,37.18609549,128.4681825,2025-06-25,4271000,강원특별자치도 영월군,134,https://www.visitbusan.net/uploadImgs/files/cntnts/20191222162111363_thumbL
김삿갓문화제,김삿갓유적지 일원,2024-10-11,2024-10-13,김삿갓제향+김삿갓문학상+김삿갓 해학의 길 걷기+조선시대 과거대전,영월문화관광재단,영월문화관광재단,강원특별자치도 영월군+강원랜드,033-375-6353,https://www.ywcf.or.kr/,,강원특별자치도 영월군 김삿갓면 김삿갓로 216-22,강원특별자치도 영월군 김삿갓면 와석리 913-1,37.07949201,128.6017366,2025-06-25,4271000,강원특별자치도 영월군,191,https://www.visitbusan.net/uploadImgs/files/cntnts/20191222162111363_thumbL
영월동강뗏목축제,동강둔치 일원,2024-08-02,2024-08-04,전통뗏목시연+워터파크+카누체험+물놀이시설,영월문화관광재단,영월문화관광재단,강원특별자치도 영월군+강원랜드,033-375-6353,https://www.ywcf.or.kr/,,,강원특별자치도 영월군 영월읍 하송리 61-11,37.17968547,128.4698463,2025-06-25,4271000,강원특별자치도 영월군,-1,https://www.visitbusan.net/uploadImgs/files/cntnts/20191222162111363_thumbL
동강국제사진제,동강사진박물관,2024-07-12,2024-09-29,국제주제전+국제공모전+동강사진상수상자전+거리설치전,영월문화관광재단,영월문화관광재단,강원특별자치도 영월군,033-375-6353,https://www.ywcf.or.kr/,,강원특별자치도 영월군 영월읍 영월로 1909-10,강원특별자치도 영월군 영월읍 하송리 217-2,37.18193994,128.4615511,2025-06-25,4271000,강원특별자치도 영월군,38,https://www.visitbusan.net/uploadImgs/files/cntnts/20191222162111363_thumbL
단종문화제,장릉 및 영월읍 일원,2024-04-26,2024-04-28,단종제향+단종국장재현+칡줄다리기+정순왕후선발대회,영월문화관광재단,영월문화관광재단,강원특별자치도 영월군+강원랜드,033-375-6353,https://www.ywcf.or.kr/,,강원특별자치도 영월군 영월읍 단종로 24,강원특별자치도 영월군 영월읍 영흥리 961-2,37.18609549,128.4681825,2025-06-25,4271000,강원특별자치도 영월군,109,https://www.visitbusan.net/uploadImgs/files/cntnts/20191222162111363_thumbL
김삿갓문화제,김삿갓유적지 일원,2023-09-22,2023-09-24,조선시대영월과거대전+백일장+김삿갓해학의길걷기,영월문화관광재단,강원특별자치도 영월군,강원특별자치도+강원랜드,033-375-6353,https://www.ywcf.or.kr/,,강원특별자치도 영월군 김삿갓면 김삿갓로 216-22,강원특별자치도 영월군 김삿갓면 와석리 913-1,37.07949201,128.6017366,2025-06-25,4271000,강원특별자치도 영월군,192,https://www.visitbusan.net/uploadImgs/files/cntnts/20191222162111363_thumbL
문경찻사발축제,문경새재도립공원 일원,2025-05-03,2025-05-11,개-폐막식 축하공연+국제작가교류전+도자기명품전+찻사발공모대전+찻사발빚기+다례체험+전통놀이+방탈출미션+요장투어+사기장의 하루+전통발물례경진대회+전통다례 시연+어린이날 특별행사,문경관광공사,경상북도 문경시,문화체육관광부+경상북도청+문경도자기협동조합+한국관광공사,054-571-7677,http://www.sabal21.com,,경상북도 문경시 문경읍 새재로 932,경상북도 문경시 문경읍 상초리 288-1,36.76160074,128.0769883,2025-08-25,B551011,한국관광공사,54,https://www.visitbusan.net/uploadImgs/files/cntnts/20191222162111363_thumbL
밀양아리랑대축제,영남루 및 밀양강변 일원+남천강변로 일원,2025-05-22,2025-05-25,대표프로그램 2개+주제형프로개름 9개+지역 문화관광자원 연계프로그램 4개+부대프로그램 2개+밀양문화재(동시행사)등,재단법인 밀양문화관광재단,경상남도+경상남도 밀양시,,055-359-4500,http://www.arirang.or.kr/,,,경상남도 밀양시 삼문동 1-1,35.4898558,128.756844,2025-08-25,B551011,한국관광공사,126,https://www.visitbusan.net/uploadImgs/files/cntnts/20191222162111363_thumbL
보령머드축제,보령머드엑스포광장,2025-07-25,2025-08-10,머드 체험프로그램+머드 공연+머드챌린지+전시판매 프로그램 등,재단법인 보령축제관광재단,충청남도 보령시,문화체육관광부+한국관광공사+충청남도청,041-930-0891,https://mudfestival.or.kr/festival/view,,,충청남도 보령시 신흑동 2282,36.31449394,126.5151849,2025-08-25,B551011,한국관광공사,168,https://www.visitbusan.net/uploadImgs/files/cntnts/20191222162111363_thumbL
보성다향대축제,한국차문화공원 및 보성차밭 일원,2025-05-02,2025-05-06,메인프로그램 5개+부대프로그램 4개+소비자체험 프로그램 3개,보성다향대축제추진위원회,보성차생산자조합,,061-850-5211,https://xn--2j1b3b273b9lecnkfqi0uo.com/,한국차소리문화공원,전라남도 보성군 보성읍 녹차로 775,,34.7198777,127.0817127,2025-08-25,B551011,한국관광공사,180,https://www.visitbusan.net/uploadImgs/files/cntnts/20191222162111363_thumbL
부산국제록페스티벌,삼락생태공원,2025-09-26,2025-09-28,부산국제록페스티벌+Rookies on the BU-ROCK+Road to BU-ROCK+푸드코트 라운지+캠핑존 등,부산문화관광축제조직위원회,부산광역시,대선주조+부산은행+칭따오+에어부산+더벤티+JAMESON IRISH WHISKEY+몬스터에너지+카카오T+다방+멜론+eyesmag+자연드림,051-713-5000,https://busanrockfestival.com/,,,부산광역시 사상구 삼락동 29-50,35.16878583,128.9741047,2025-08-25,B551011,한국관광공사,108,https://www.visitbusan.net/uploadImgs/files/cntnts/20191222162111363_thumbL
부천국제만화축제,한국만화박물관 일원,2025-09-26,2025-09-28,부천만화대상 수상작 특별전시+만화창작음악제+경기국제코스프레페스티벌+작가와의 대담 등,(재)한국만화영상진흥원,(재)한국만화영상진흥원,,032-310-3071,https://www.bicof.com,,경기도 부천시 원미구 길주로 1 (상동),경기도 부천시 원미구 상동 529-2,37.51206151,126.7465525,2025-08-25,B551011,한국관광공사,101,https://www.visitbusan.net/uploadImgs/files/cntnts/20191222162111363_thumbL
부평풍물대축제,부평대로 + 부평일원,2025-09-26,2025-09-28,개폐막공연+부평대동퍼레이드&부평만만세+대한민국창작풍물대전+부평생활문화축제+풍물페스타 등,부평구축제위원회+부평구문화재단+부평문화원,인천광역시 부평구,문화체육관광부+인천광역시청+인천광역시교육청+인천광역시의회+부평구의회,032-509-7516,https://portal.icbp.go.kr/bpf/,,인천광역시 부평구 시장로 10 (부평동),인천광역시 부평구 부평동 126-10,37.4956392,126.7226526,2025-08-25,B551011,한국관광공사,1067,https://www.visitbusan.net/uploadImgs/files/cntnts/20191222162111363_thumbL
산청한방약초축제,동의보감촌,2025-10-02,2025-10-12,산청혜민서+내몸의 보약체험+항노화뷰티관+약초판매장터+가족힐링존+소원지체험존 등,(재)산청축제관광재단,(재)산청축제관광재단,경상남도 산청구청+경상남도청+문화체육관광부+한국관광공사,055-970-6670,http://scherb.or.kr/,,경상남도 산청군 금서면 동의보감로555번길 61,경상남도 산청군 금서면 특리 1300-25,35.44111103,127.8278349,2025-08-25,B551011,한국관광공사,114,https://www.visitbusan.net/uploadImgs/files/cntnts/20191222162111363_thumbL
서산해미읍성축제,해미읍성,2025-09-26,2025-09-28,고성방가EDM파티+서산 헤리티지+청허정 힐링 프로그램+해미 더 클래식+뮤지컬 갈라쇼+블랙이글스 에어쇼 등,(재)서산문화재단,충청남도 서산시,,041-660-2696,http://www.haemifest.com/,,충청남도 서산시 해미면 남문2로 143,충청남도 서산시 해미면 읍내리 491,36.71355404,126.5503811,2025-08-25,B551011,한국관광공사,71,https://www.visitbusan.net/uploadImgs/files/cntnts/20191222162111363_thumbL
세종축제,세종호수공원 일원,2025-10-09,2025-10-11,한글놀이터+과학놀이터+시민참여 프로그램 공모,(재)세종시문화관광재단,세종특별자치시,,044-850-0592,http://sjfestival.kr/,,세종특별자치시 호수공원길 155,세종특별자치시 세종동 1201,36.49717958,127.2734851,2025-08-25,B551011,한국관광공사,-5,https://www.visitbusan.net/uploadImgs/files/cntnts/20191222162111363_thumbL
소래포구 축제,해오름광장,2025-09-26,2025-09-28,어등 만들기+대하 잡기+생태 체험 부스+예술 체험 부스+해양 어등 터널+소래포구 영상제+아트 플리마켓 등,남동문화재단,인천광역시 남동구,,032-453-2142,www.namdong.go.kr/soraefestival,,인천광역시 남동구 아암대로 1454 (논현동),,37.3872524,126.7269797,2025-08-25,B551011,한국관광공사,1207,https://www.visitbusan.net/uploadImgs/files/cntnts/20191222162111363_thumbL
수원화성문화제,수원화성 일원,2025-09-27,2025-10-04,주제공연 수원판타지 야조 +공연프로그램 2개+체험/참여프로그램 6개+정조대왕 능행차 등,경기도 수원시+수원화성문화제 추진위원회+수원문화재단,경기도 수원시,,031-228-3920,https://shfestival.com/index,,,경기도 수원시 팔달구 신풍동 363-31,37.2821138,127.0154124,2025-08-25,B551011,한국관광공사,108,https://www.visitbusan.net/uploadImgs/files/cntnts/20191222162111363_thumbL
묵호 도째비페스타,묵호항 여객선터미널 일대,2025-07-18,2025-07-20,개막식+공연행사+먹거리+체험거리부스운영,동해문화관광재단,강원특별자치도 동해시청,강원특별자치도 동해시청,033-530-2412,dhfesta.or.kr/dmdf/,,강원특별자치도 동해시 일출로22,강원특별자치도 동해시 묵호진동 13-48,37.55031291,129.1125007,2025-07-28,4211000,강원특별자치도 동해시,42,https://www.visitbusan.net/uploadImgs/files/cntnts/20191222162111363_thumbL
해변 뮤직 페스티벌,"추암, 망상해변",2025-07-30,2025-08-04,공연,동해문화관광재단,강원특별자치도 동해시청,강원특별자치도 동해시청,033-530-2412,dh.go.kr,,강원특별자치도 동해시 동해대로 6270-10,강원특별자치도 동해시 망상동 393-100,37.59225691,129.0896901,2025-07-28,4211000,강원특별자치도 동해시,78,https://www.visitbusan.net/uploadImgs/files/cntnts/20191222162111363_thumbL
동해무릉제,동해웰빙레포츠타운,2025-09-18,2025-09-21,개막식+공연행사+먹거리+체험거리부스운영,동해문화관광재단,강원특별자치도 동해시청,강원특별자치도 동해시청,033-530-2412,dhfesta.or.kr/dmrf/,,강원특별자치도 동해시 덕골길 10,강원특별자치도 동해시 천곡동 363-1,37.51605831,129.1021986,2025-07-28,4211000,강원특별자치도 동해시,173,https://www.visitbusan.net/uploadImgs/files/cntnts/20191222162111363_thumbL
삼화사국행수륙대재,삼화사,2025-10-17,2025-10-19,불교의례+의식진행,대한불교 조계종 삼화사,강원특별자치도 동해시청,강원특별자치도 동해시청,033-530-2461,samhwasa.or.kr,,강원특별자치도 동해시 삼화로 584,강원특별자치도 동해시 삼화동 860-1,37.46357478,129.0146909,2025-07-28,4211000,강원특별자치도 동해시,15,https://www.visitbusan.net/uploadImgs/files/cntnts/20191222162111363_thumbL
제21회 진안고원 운장산 고로쇠축제,주천면 운일암반일암 삼거광장 일원,2025-03-08,2025-03-09,고로쇠 관련 체험+고로쇠 판매 등,진안고원운장산고로쇠축제위원회,전북특별자치도 진안군,,063-430-2393,https://www.jinango.kr/,,,전북특별자치도 진안군 주천면 대불리 75-1,35.98388102,127.3882948,2025-07-28,4731000,전북특별자치도 진안군,84,https://www.visitbusan.net/uploadImgs/files/cntnts/20191222162111363_thumbL
제15회 진안고원 수박축제,동향면 체련공원 일원,2025-08-02,2025-08-03,수박왕 선발대회+수박판매 등,진안고원수박축제추진위원회,전북특별자치도 진안군,,063-430-2393,https://www.jinansubak.kr/,,전북특별자치도 진안군 동향면 진성로 1687,전북특별자치도 진안군 동향면 능금리 2198-2,35.84147374,127.5747111,2025-07-28,4731000,전북특별자치도 진안군,107,https://www.visitbusan.net/uploadImgs/files/cntnts/20191222162111363_thumbL
2025 진안홍삼축제,마이산 북부 일원,2025-09-26,2025-09-28,홍삼 수삼판매+홍삼관련체험+문화공연 등,진안홍삼축제추진위원회,전북특별자치도 진안군,,063-430-2392,https://www.jinan.go.kr/festival/,,전북특별자치도 진안군 진안읍 마이산로 160,전북특별자치도 진안군 진안읍 단양리 778,35.773251,127.4162559,2025-07-28,4731000,전북특별자치도 진안군,131,https://www.visitbusan.net/uploadImgs/files/cntnts/20191222162111363_thumbL
제7회 진안고원 김치보쌈축제,진안홍삼한방센터 일원,2025-11-15,2025-11-16,우리집 김치담그기+사랑의 김장나눔 등,진안YMCA,전북특별자치도 진안군,,063-430-2393,https://jinankimchi.kr/,,전북특별자치도 진안군 진안읍 진무로 1166,전북특별자치도 진안군 진안읍 군상리 234,35.7949205,127.434257,2025-07-28,4731000,전북특별자치도 진안군,148,https://www.visitbusan.net/uploadImgs/files/cntnts/20191222162111363_thumbL
제23회광안리어방축제,광안리해변 및 수영사적공원 일원,2025-05-09,2025-05-11,"뮤지컬어방, 경상좌수사행렬퍼레이드 등 45개 프로그램",수영구 축제위원회,부산광역시 수영구청,문화체육관광부+부산광역시,051-610-4212,suyeong.go.kr/festival,,부산광역시 수영구 남천동로100,부산광역시 수영구 남천동148-15,35.14537016,129.1123694,2025-07-16,3380000,부산광역시 수영구,961,https://www.visitbusan.net/uploadImgs/files/cntnts/20191222162111363_thumbL
거제맹종대나무축제,거제맹종죽테마파크 일원,2025-04-25,2025-04-27,죽순 껍질벗기기 체험+죽순 수확 체험+죽순요리 시식+대나무통 소원쓰기 행사 등,거제맹종죽영농조합법인,거제시농업기술센터 농산물유통과,,055-639-6354,,,경상남도 거제시 하청면 거제북로 700,경상남도 거제시 하청면 실전리 산 84-6,34.967728,128.6505119,2025-07-28,5370000,경상남도 거제시,58,https://www.visitbusan.net/uploadImgs/files/cntnts/20191222162111363_thumbL
거제 옥포대첩 축제,옥포대첩기념공원+옥포수변공원 일원,2025-06-13,2025-06-15,제례봉행+승전행차+가장행렬+옥포해전 재현 등,거제시문화예술재단,거제시문화예술재단,,055-639-3393,,,경상남도 거제시 팔랑포2길 87+경상남도 거제시 옥포로2길 14,경상남도 거제시 옥포동 산 1-1,34.902198,128.7140589,2025-07-28,5370000,경상남도 거제시,101,https://www.visitbusan.net/uploadImgs/files/cntnts/20191222162111363_thumbL
남부면 수국축제,매물도 여객선터미널+남부면 저구항 일원,2025-06-01,2025-06-30,식전행사+화합행사+수국포토존+목재만들기 체험 등,남부면발전협의회,남부면발전협의회,,055-639-6532,,,경상남도 거제시 남부면 남부해안로 30,경상남도 거제시 남부면 저구리 70,34.732249,128.6101227,2025-07-28,5370000,경상남도 거제시,129,https://www.visitbusan.net/uploadImgs/files/cntnts/20191222162111363_thumbL
거제여름해양축제,지세포항수변공원 일원,2025-07-25,2025-07-27,해양스포츠대회+체험프로그램+블루썸머콘서트 등,㈜엠비씨경남,거제시해양관광개발공사,,055-639-4064,,,경상남도 거제시 일운면 거제대로 2056,경상남도 거제시 일운면 구조라리 502,34.80794905,128.6922053,2025-07-28,5370000,경상남도 거제시,52,https://www.visitbusan.net/uploadImgs/files/cntnts/20191222162111363_thumbL
거제맥주축제,장승포 수변공원 일원,2025-08-01,2025-08-31,맥주 무제한 제공+무대공연+먹거리 체험 부스 등,거제해양관광개발공사,거제해양관광개발공사,경상남도 거제시+KNN,055-639-8192,,,경상남도 거제시 장승로 146-12,경상남도 거제시 장승포동 685-3,34.866879,128.726047,2025-07-28,5370000,경상남도 거제시,97,https://www.visitbusan.net/uploadImgs/files/cntnts/20191222162111363_thumbL
거제둔덕포도축제,둔덕가족생활체육공원 일원,2025-09-06,2025-09-07,"포도판매+포도 경매, 체험+공연 등",거제둔덕포도축제추진위원회,둔덕면사무소,,055-639-6611,,,,경상남도 거제시 둔덕면 하둔리 645,34.83386587,128.5038784,2025-07-28,5370000,경상남도 거제시,111,https://www.visitbusan.net/uploadImgs/files/cntnts/20191222162111363_thumbL
거제 섬꽃축제,거제시 농업기술센터 일원,2025-10-25,2025-11-09,가을꽃 전시+농업기술 홍보+문화예술 전시 등,거제시농업기술센터 농업지원과,거제시농업기술센터 농업지원과,,055-639-6443,http://www.geoje.go.kr/flower/index.geoje,,경상남도 거제시 거제면 거제남서로 3577,경상남도 거제시 거제면 서정리 978-14,34.856464,128.579127,2025-07-28,5370000,경상남도 거제시,79,https://www.visitbusan.net/uploadImgs/files/cntnts/20191222162111363_thumbL
거제도국제펭귄수영축제,덕포해수욕장 일원,2025-01-11,2025-01-11,펭귄수영+맨손 광어잡이 등,옥포2동주민자치회,거제도 국제펭귄수영축제 추진위원회,,055-639-6864,,,,경상남도 거제시 덕포동 364-4,34.911736,128.710848,2025-07-28,5370000,경상남도 거제시,72,https://www.visitbusan.net/uploadImgs/files/cntnts/20191222162111363_thumbL
장승포항송년불꽃축제,장승포항 수변공원 일원,2025-12-31,2025-12-31,식전공연+개회식+불꽃연출+식후공연+부대행사 등,거제시해양관광개발공사,거제시해양관광개발공사,,055-639-3534,,,경상남도 거제시 장승로 146-12,경상남도 거제시 장승포동 685-3,34.866879,128.726047,2025-07-28,5370000,경상남도 거제시,147,https://www.visitbusan.net/uploadImgs/files/cntnts/20191222162111363_thumbL
거제몽돌해변불꽃축제,학동흑진주몽돌해변 일원,2025-10-25,2025-10-25,체험행사+공연+불꽃 퍼레이드 등,학동마을회,동부면사무소,,055-639-6492,,,,경상남도 거제시 동부면 학동리 295-1,34.77330415,128.6402426,2025-07-28,5370000,경상남도 거제시,33,https://www.visitbusan.net/uploadImgs/files/cntnts/20191222162111363_thumbL
